Time, roll, rollrate, rollDesired, rollError, pitch, pitchRate, pitchDesired, pitchError, yaw, yawRate, yawDesired, yawError, throttle
1.092673,-0.0361718233204,0.365853349513,0,0.0361718233204,0.161141458969,-0.853657815531,0,-0.161141458969,-0.117659757553,1.34146228155,-0.0,0.117659757553,1.0
1.189315,-0.0814778904825,0.487804466018,0,0.0814778904825,0.346722964487,-0.670731140774,0,-0.346722964487,-0.248003942791,1.21951116504,-0.0,0.248003942791,1.0
1.285835,-0.141375235715,0.426828907765,0,0.141375235715,0.508577199954,-0.731706699026,0,-0.508577199954,-0.377147430557,1.34146228155,-0.0,0.377147430557,1.0
1.383412,-0.193691519752,0.243902233009,0,0.193691519752,0.688277214556,-0.731706699026,0,-0.688277214556,-0.507259190226,1.46341339805,-0.0,0.507259190226,1.0
1.48192,-0.177929832336,0.426828907765,0,0.177929832336,0.871173300166,-0.853657815531,0,-0.871173300166,-0.635578218468,1.2804867233,-0.0,0.635578218468,1.0
1.579864,-0.230382008748,0.426828907765,0,0.230382008748,0.922533729192,-0.731706699026,0,-0.922533729192,-0.761881355702,1.34146228155,-0.0,0.761881355702,1.0
1.677783,-0.239365678684,0.426828907765,0,0.239365678684,1.08014778454,-0.853657815531,0,-1.08014778454,-0.890237175165,1.2804867233,-0.0,0.890237175165,1.0
1.776482,-0.257942151287,0.487804466018,0,0.257942151287,1.10041948396,-0.914633373783,0,-1.10041948396,-1.01753912925,1.2804867233,-0.0,1.01753912925,1.0
1.874757,-0.287631574566,0.182926674757,0,0.287631574566,1.1232149628,-0.853657815531,0,-1.1232149628,-1.14522498603,1.4024378398,-0.0,1.14522498603,1.0
1.973708,-0.316357804187,0.243902233009,0,0.316357804187,1.15973755243,-0.975608932035,0,-1.15973755243,-1.27649480849,1.34146228155,-0.0,1.27649480849,1.0
2.072111,-0.334004960793,0.365853349513,0,0.334004960793,1.13822631177,-0.914633373783,0,-1.13822631177,-1.40557303176,1.2804867233,-0.0,1.40557303176,1.0
2.171192,-0.310378143148,0.609755582522,0,0.310378143148,1.11033839774,-0.792682257279,0,-1.11033839774,-1.53301883517,1.34146228155,-0.0,1.53301883517,1.0
2.26974,-0.335654797916,0.54878002427,0,0.335654797916,1.13009583387,-0.853657815531,0,-1.13009583387,-1.66476317306,1.2804867233,-0.0,1.66476317306,1.0
2.367872,-0.241596923606,0.304877791261,0,0.241596923606,1.16499965189,-0.853657815531,0,-1.16499965189,-1.79973484422,1.46341339805,-0.0,1.79973484422,1.0
2.465666,-0.305265036597,0.304877791261,0,0.305265036597,1.07598147733,-0.853657815531,0,-1.07598147733,-1.92726164356,1.2804867233,-0.0,1.92726164356,1.0
2.564344,-0.300103149917,0.182926674757,0,0.300103149917,1.11068344896,-0.853657815531,0,-1.11068344896,-2.05898910867,1.21951116504,-0.0,2.05898910867,1.0
2.663195,-0.323778885112,0.243902233009,0,0.323778885112,1.21157048583,-0.731706699026,0,-1.21157048583,-2.18383422225,1.21951116504,-0.0,2.18383422225,1.0
2.762113,-0.260978635884,0.365853349513,0,0.260978635884,1.14650479734,-0.914633373783,0,-1.14650479734,-2.3169798164,1.46341339805,-0.0,2.3169798164,1.0
2.85958,-0.295553180232,0.54878002427,0,0.295553180232,1.22931788207,-0.853657815531,0,-1.22931788207,-2.45181955237,1.2804867233,-0.0,2.45181955237,1.0
2.95535,-0.307681473069,0.304877791261,0,0.307681473069,1.17523658995,-0.792682257279,0,-1.17523658995,-2.56880308648,1.34146228155,-0.0,2.56880308648,1.0
3.051576,-0.288195812388,0.243902233009,0,0.288195812388,1.17605103553,-0.853657815531,0,-1.17605103553,-2.70020785945,1.4024378398,-0.0,2.70020785945,1.0
3.147937,-0.269580680912,0.426828907765,0,0.269580680912,1.17800553201,-0.792682257279,0,-1.17800553201,-2.82858414322,1.15853560679,-0.0,2.82858414322,1.0
3.244604,-0.339050821977,0.426828907765,0,0.339050821977,1.20155762287,-0.731706699026,0,-1.20155762287,-2.95990707166,1.46341339805,-0.0,2.95990707166,1.0
3.343044,-0.221733057913,0.304877791261,0,0.221733057913,1.21526325291,-0.731706699026,0,-1.21526325291,-3.09075778199,1.34146228155,-0.0,3.09075778199,1.0
3.442035,-0.297336470766,0.304877791261,0,0.297336470766,1.1698845547,-0.54878002427,0,-1.1698845547,-3.22304655319,1.2804867233,-0.0,3.22304655319,1.0
3.540375,-0.237890346607,0.243902233009,0,0.237890346607,1.15007344693,-0.792682257279,0,-1.15007344693,-3.35394681042,1.34146228155,-0.0,3.35394681042,1.0
3.639066,-0.310582542721,0.54878002427,0,0.310582542721,1.23052943702,-0.731706699026,0,-1.23052943702,-3.48258344721,1.4024378398,-0.0,3.48258344721,1.0
3.73761,-0.349994004622,0.243902233009,0,0.349994004622,1.20036529256,-0.853657815531,0,-1.20036529256,-3.61475021875,1.2804867233,-0.0,3.61475021875,1.0
3.836172,-0.379921286635,0.487804466018,0,0.379921286635,1.20812716539,-0.792682257279,0,-1.20812716539,-3.74244327492,1.34146228155,-0.0,3.74244327492,1.0
3.934359,-0.384305612186,0.487804466018,0,0.384305612186,1.21919803108,-0.731706699026,0,-1.21919803108,-3.87090205537,1.21951116504,-0.0,3.87090205537,1.0
4.033028,-0.276320960266,0.670731140774,0,0.276320960266,1.17024868451,-0.792682257279,0,-1.17024868451,-3.99905791619,1.2804867233,-0.0,3.99905791619,1.0
4.131275,-0.264984927395,0.487804466018,0,0.264984927395,1.07801511626,-0.853657815531,0,-1.07801511626,-4.1267777476,1.34146228155,-0.0,4.1267777476,1.0
4.229752,-0.276812752262,0.54878002427,0,0.276812752262,1.14043796354,-0.731706699026,0,-1.14043796354,-4.25912046509,1.34146228155,-0.0,4.25912046509,1.0
4.328496,-0.26206047861,0.54878002427,0,0.26206047861,1.18795298494,-0.975608932035,0,-1.18795298494,-4.39280392192,1.09756004854,-0.0,4.39280392192,1.0
4.42689,-0.296531754667,0.609755582522,0,0.296531754667,1.23082230961,-0.731706699026,0,-1.23082230961,-4.5204286847,1.09756004854,-0.0,4.5204286847,1.0
4.525091,-0.236608108531,0.304877791261,0,0.236608108531,1.1918276418,-0.853657815531,0,-1.1918276418,-4.64781573695,1.21951116504,-0.0,4.64781573695,1.0
4.623599,-0.317581087242,0.365853349513,0,0.317581087242,1.27637087937,-0.853657815531,0,-1.27637087937,-4.77641907885,1.2804867233,-0.0,4.77641907885,1.0
4.72234,-0.243201124363,0.609755582522,0,0.243201124363,1.13673460426,-0.731706699026,0,-1.13673460426,-4.91063951768,1.34146228155,-0.0,4.91063951768,1.0
4.82116,-0.271415027699,0.487804466018,0,0.271415027699,1.1475669547,-0.731706699026,0,-1.1475669547,-5.0420452431,1.4024378398,-0.0,5.0420452431,1.0
4.921157,-0.36958975993,0.365853349513,0,0.36958975993,1.07450114086,-0.853657815531,0,-1.07450114086,-5.17210160489,1.2804867233,-0.0,5.17210160489,1.0
5.020587,-0.384670010488,0.426828907765,0,0.384670010488,1.05295534775,-0.731706699026,0,-1.05295534775,-5.29753505904,1.21951116504,-0.0,5.29753505904,1.0
5.119207,-0.31029923717,0.426828907765,0,0.31029923717,1.07790134977,-0.670731140774,0,-1.07790134977,-5.42498285583,1.21951116504,-0.0,5.42498285583,1.0
5.217771,-0.394033799041,0.365853349513,0,0.394033799041,1.11691550168,-0.731706699026,0,-1.11691550168,-5.55727672581,1.4024378398,-0.0,5.55727672581,1.0
5.316461,-0.283043512322,0.426828907765,0,0.283043512322,1.15718265804,-0.853657815531,0,-1.15718265804,-5.68591363969,1.2804867233,-0.0,5.68591363969,1.0
5.414871,-0.364622350739,0.182926674757,0,0.364622350739,1.11730301974,-0.731706699026,0,-1.11730301974,-5.81505020473,1.21951116504,-0.0,5.81505020473,1.0
5.513815,-0.400216834419,0.54878002427,0,0.400216834419,1.09619440528,-0.853657815531,0,-1.09619440528,-5.94832456023,1.46341339805,-0.0,5.94832456023,1.0
5.612318,-0.397846013895,0.426828907765,0,0.397846013895,1.09363087879,-0.914633373783,0,-1.09363087879,-6.0764604176,1.2804867233,-0.0,6.0764604176,1.0
5.710073,-0.466921408138,0.365853349513,0,0.466921408138,1.21715226966,-0.792682257279,0,-1.21715226966,-6.20021372649,1.15853560679,-0.0,6.20021372649,1.0
5.808877,-0.427568058662,0.365853349513,0,0.427568058662,1.18897000377,-0.731706699026,0,-1.18897000377,-6.32628496084,1.15853560679,-0.0,6.32628496084,1.0
5.908357,-0.432332105597,0.487804466018,0,0.432332105597,1.18237254716,-0.731706699026,0,-1.18237254716,-6.46312101425,1.34146228155,-0.0,6.46312101425,1.0
6.006217,-0.403921417457,0.304877791261,0,0.403921417457,1.08053837299,-0.609755582522,0,-1.08053837299,-6.59150832207,1.03658449029,-0.0,6.59150832207,1.0
6.100509,-0.366023470532,0.54878002427,0,0.366023470532,1.13768997364,-0.792682257279,0,-1.13768997364,-6.71513562553,1.21951116504,-0.0,6.71513562553,1.0
6.198653,-0.337028373236,0.426828907765,0,0.337028373236,1.11000719829,-0.853657815531,0,-1.11000719829,-6.84610603428,1.15853560679,-0.0,6.84610603428,1.0
6.297315,-0.339154068971,0.365853349513,0,0.339154068971,1.16833501848,-0.914633373783,0,-1.16833501848,-6.9700684848,1.03658449029,-0.0,6.9700684848,1.0
6.396158,-0.350956962198,0.365853349513,0,0.350956962198,1.23721178384,-0.731706699026,0,-1.23721178384,-7.09863226307,1.4024378398,-0.0,7.09863226307,1.0
6.494858,-0.35878166922,0.487804466018,0,0.35878166922,1.18137230962,-0.731706699026,0,-1.18137230962,-7.22972346308,1.34146228155,-0.0,7.22972346308,1.0
6.593584,-0.323394646885,0.243902233009,0,0.323394646885,1.0781928542,-0.914633373783,0,-1.0781928542,-7.36030260092,1.4024378398,-0.0,7.36030260092,1.0
6.692262,-0.324534397884,0.365853349513,0,0.324534397884,1.09114050762,-0.914633373783,0,-1.09114050762,-7.49037869067,1.15853560679,-0.0,7.49037869067,1.0
6.793918,-0.257227847948,0.304877791261,0,0.257227847948,1.13322522574,-0.975608932035,0,-1.13322522574,-7.62276521639,1.2804867233,-0.0,7.62276521639,1.0
6.887394,-0.204821238653,0.487804466018,0,0.204821238653,1.14291201772,-0.731706699026,0,-1.14291201772,-7.73781047945,1.4024378398,-0.0,7.73781047945,1.0
6.984383,-0.238849421307,0.182926674757,0,0.238849421307,1.13067991277,-0.853657815531,0,-1.13067991277,-7.86565056829,1.21951116504,-0.0,7.86565056829,1.0
7.081317,-0.318675529129,0.365853349513,0,0.318675529129,1.06618759542,-0.792682257279,0,-1.06618759542,-7.9972670115,1.09756004854,-0.0,7.9972670115,1.0
7.179102,-0.363995206658,0.365853349513,0,0.363995206658,1.16839063554,-0.792682257279,0,-1.16839063554,-8.1269128189,1.2804867233,-0.0,8.1269128189,1.0
7.277716,-0.428252479024,0.426828907765,0,0.428252479024,1.25001539106,-0.792682257279,0,-1.25001539106,-8.25839279657,1.21951116504,-0.0,8.25839279657,1.0
7.376352,-0.284367014556,0.487804466018,0,0.284367014556,1.15276833319,-0.914633373783,0,-1.15276833319,-8.38688710947,1.2804867233,-0.0,8.38688710947,1.0
7.474705,-0.291844683302,0.487804466018,0,0.291844683302,1.15940814574,-0.914633373783,0,-1.15940814574,-8.52075880761,1.46341339805,-0.0,8.52075880761,1.0
7.571704,-0.327188679506,0.54878002427,0,0.327188679506,1.13617820975,-0.914633373783,0,-1.13617820975,-8.6432226338,1.15853560679,-0.0,8.6432226338,1.0
7.669304,-0.343007324944,0.54878002427,0,0.343007324944,1.22652213113,-0.670731140774,0,-1.22652213113,-8.77411240736,1.21951116504,-0.0,8.77411240736,1.0
7.768845,-0.306886772108,0.182926674757,0,0.306886772108,1.24329372626,-0.853657815531,0,-1.24329372626,-8.90177311277,1.21951116504,-0.0,8.90177311277,1.0
7.866507,-0.318635157403,0.365853349513,0,0.318635157403,1.22499159404,-0.792682257279,0,-1.22499159404,-9.02714279338,1.2804867233,-0.0,9.02714279338,1.0
7.964441,-0.275060830465,0.304877791261,0,0.275060830465,1.22585217953,-0.731706699026,0,-1.22585217953,-9.15753559163,1.4024378398,-0.0,9.15753559163,1.0
8.063304,-0.333451398468,0.426828907765,0,0.333451398468,1.19189569263,-0.975608932035,0,-1.19189569263,-9.2828975348,1.34146228155,-0.0,9.2828975348,1.0
8.161621,-0.314923476078,0.609755582522,0,0.314923476078,1.20195767158,-0.853657815531,0,-1.20195767158,-9.41175148256,1.15853560679,-0.0,9.41175148256,1.0
8.25994,-0.367095790787,0.426828907765,0,0.367095790787,1.20509851461,-0.609755582522,0,-1.20509851461,-9.54379995864,1.21951116504,-0.0,9.54379995864,1.0
8.357879,-0.325001511846,0.426828907765,0,0.325001511846,1.20288756106,-0.609755582522,0,-1.20288756106,-9.6722118211,1.21951116504,-0.0,9.6722118211,1.0
8.456728,-0.272568243897,0.304877791261,0,0.272568243897,1.21885562314,-0.670731140774,0,-1.21885562314,-9.80594509577,1.4024378398,-0.0,9.80594509577,1.0
8.555899,-0.30197539303,0.243902233009,0,0.30197539303,1.20383962814,-1.09756004854,0,-1.20383962814,-9.93919717329,1.52438895631,-0.0,9.93919717329,1.0
8.654619,-0.219969937575,0.426828907765,0,0.219969937575,1.24802036366,-0.731706699026,0,-1.24802036366,-10.0686006932,1.2804867233,-0.0,10.0686006932,1.0
8.75487,-0.267461056487,0.365853349513,0,0.267461056487,1.13397725046,-0.914633373783,0,-1.13397725046,-10.2018257127,1.46341339805,-0.0,10.2018257127,1.0
8.853349,-0.31548584014,0.426828907765,0,0.31548584014,1.12974805711,-0.792682257279,0,-1.12974805711,-10.3296668198,1.4024378398,-0.0,10.3296668198,1.0
8.951451,-0.36126388875,0.365853349513,0,0.36126388875,1.11581808445,-0.792682257279,0,-1.11581808445,-10.4641110787,1.34146228155,-0.0,10.4641110787,1.0
9.049345,-0.382580945211,0.182926674757,0,0.382580945211,1.15026522697,-0.731706699026,0,-1.15026522697,-10.602610505,1.21951116504,-0.0,10.602610505,1.0
9.148795,-0.407049317671,0.426828907765,0,0.407049317671,1.14341397477,-0.914633373783,0,-1.14341397477,-10.7304309502,1.34146228155,-0.0,10.7304309502,1.0
9.247206,-0.354761222449,0.487804466018,0,0.354761222449,1.13276393867,-0.609755582522,0,-1.13276393867,-10.862406455,1.2804867233,-0.0,10.862406455,1.0
9.346268,-0.299437514007,0.426828907765,0,0.299437514007,1.13959078668,-0.792682257279,0,-1.13959078668,-10.994550508,1.2804867233,-0.0,10.994550508,1.0
9.443533,-0.270630025691,0.365853349513,0,0.270630025691,1.15530972461,-0.792682257279,0,-1.15530972461,-11.1228865851,1.2804867233,-0.0,11.1228865851,1.0
9.542856,-0.187078198522,0.304877791261,0,0.187078198522,1.13108499641,-0.975608932035,0,-1.13108499641,-11.2502568299,1.21951116504,-0.0,11.2502568299,1.0
9.640968,-0.272193104877,0.304877791261,0,0.272193104877,1.134223439,-0.975608932035,0,-1.134223439,-11.3799081236,1.34146228155,-0.0,11.3799081236,1.0
9.738402,-0.275581047416,0.304877791261,0,0.275581047416,1.1362457671,-0.792682257279,0,-1.1362457671,-11.498988823,1.2804867233,-0.0,11.498988823,1.0
9.834907,-0.236142288614,0.365853349513,0,0.236142288614,1.14483353223,-0.853657815531,0,-1.14483353223,-11.6279403799,1.2804867233,-0.0,11.6279403799,1.0
9.931825,-0.318539189742,0.243902233009,0,0.318539189742,1.05717170848,-0.853657815531,0,-1.05717170848,-11.7555096338,1.52438895631,-0.0,11.7555096338,1.0
10.028846,-0.336955869019,0.365853349513,0,0.336955869019,1.11683660886,-0.792682257279,0,-1.11683660886,-11.8835082844,1.2804867233,-0.0,11.8835082844,1.0
10.127335,-0.303534502023,0.426828907765,0,0.303534502023,1.14550236312,-0.670731140774,0,-1.14550236312,-12.0122496938,1.2804867233,-0.0,12.0122496938,1.0
10.225829,-0.288748604005,0.243902233009,0,0.288748604005,1.12591444087,-0.853657815531,0,-1.12591444087,-12.1411689889,1.34146228155,-0.0,12.1411689889,1.0
10.324306,-0.28241256307,0.243902233009,0,0.28241256307,1.16512897947,-1.03658449029,0,-1.16512897947,-12.2731118757,1.46341339805,-0.0,12.2731118757,1.0
10.423007,-0.27183333974,0.243902233009,0,0.27183333974,1.16154431259,-0.609755582522,0,-1.16154431259,-12.3992067449,1.21951116504,-0.0,12.3992067449,1.0
10.521549,-0.256750236089,0.487804466018,0,0.256750236089,1.16418420556,-0.670731140774,0,-1.16418420556,-12.52696645,1.34146228155,-0.0,12.52696645,1.0
10.619549,-0.250607986904,0.365853349513,0,0.250607986904,1.07349011957,-0.853657815531,0,-1.07349011957,-12.6528492727,1.34146228155,-0.0,12.6528492727,1.0
10.719122,-0.245592168173,0.487804466018,0,0.245592168173,1.19774421611,-0.853657815531,0,-1.19774421611,-12.7808030452,1.15853560679,-0.0,12.7808030452,1.0
10.818238,-0.264835617986,0.54878002427,0,0.264835617986,1.12322502713,-1.09756004854,0,-1.12322502713,-12.9169232603,1.46341339805,-0.0,12.9169232603,1.0
10.91695,-0.306671904194,0.426828907765,0,0.306671904194,1.12232013516,-0.975608932035,0,-1.12232013516,-13.0465502111,1.21951116504,-0.0,13.0465502111,1.0
11.01136,-0.369964220838,0.304877791261,0,0.369964220838,1.1483735436,-0.792682257279,0,-1.1483735436,-13.1723449975,1.21951116504,-0.0,13.1723449975,1.0
11.109489,-0.383869472063,0.426828907765,0,0.383869472063,1.18177522515,-0.731706699026,0,-1.18177522515,-13.3046822308,1.34146228155,-0.0,13.3046822308,1.0
11.208126,-0.381562294518,0.182926674757,0,0.381562294518,1.16967542531,-0.792682257279,0,-1.16967542531,-13.4311150978,1.15853560679,-0.0,13.4311150978,1.0
11.305227,-0.300524468499,0.365853349513,0,0.300524468499,1.1049030826,-0.792682257279,0,-1.1049030826,-13.5610949065,1.46341339805,-0.0,13.5610949065,1.0
11.403338,-0.331439346527,0.243902233009,0,0.331439346527,1.11651530255,-0.914633373783,0,-1.11651530255,-13.6924278154,1.2804867233,-0.0,13.6924278154,1.0
11.501529,-0.280634917246,0.426828907765,0,0.280634917246,1.14368551772,-0.54878002427,0,-1.14368551772,-13.8227204785,1.2804867233,-0.0,13.8227204785,1.0
11.598506,-0.367847567049,0.487804466018,0,0.367847567049,1.07515989359,-0.853657815531,0,-1.07515989359,-13.954341396,1.4024378398,-0.0,13.954341396,1.0
11.696756,-0.334618466814,0.182926674757,0,0.334618466814,1.11770626731,-0.914633373783,0,-1.11770626731,-14.0810719304,1.15853560679,-0.0,14.0810719304,1.2
11.795184,-0.31305408159,0.304877791261,0,0.31305408159,1.07463856925,-0.792682257279,0,-1.07463856925,-14.2083233541,1.2804867233,-0.0,14.2083233541,1.2
11.892458,-0.320462506486,0.243902233009,0,0.320462506486,1.1583791341,-0.914633373783,0,-1.1583791341,-14.3369500837,1.21951116504,-0.0,14.3369500837,1.2
11.990058,-0.336678064825,0.670731140774,0,0.336678064825,1.2083712286,-0.792682257279,0,-1.2083712286,-14.4536035325,1.21951116504,-0.0,14.4536035325,1.2
12.087912,-0.356293546707,0.487804466018,0,0.356293546707,1.19290440468,-0.792682257279,0,-1.19290440468,-14.581416044,1.46341339805,-0.0,14.581416044,1.2
12.185815,-0.342684849309,0.182926674757,0,0.342684849309,1.22636419685,-0.975608932035,0,-1.22636419685,-14.7298223241,1.4024378398,-0.0,14.7298223241,1.2
12.283271,-0.255857802026,0.365853349513,0,0.255857802026,1.16498495486,-0.731706699026,0,-1.16498495486,-14.8537773372,1.03658449029,-0.0,14.8537773372,1.2
12.37999,-0.241986554946,0.243902233009,0,0.241986554946,1.22253103132,-0.670731140774,0,-1.22253103132,-14.979595022,1.34146228155,-0.0,14.979595022,1.2
12.478029,-0.239851356939,0.304877791261,0,0.239851356939,1.21289601168,-0.853657815531,0,-1.21289601168,-15.1252781476,1.4024378398,-0.0,15.1252781476,1.2
12.576323,-0.217053377728,0.487804466018,0,0.217053377728,1.21391474964,-0.792682257279,0,-1.21391474964,-15.2459496283,1.2804867233,-0.0,15.2459496283,1.2
12.67312,-0.292870816602,0.365853349513,0,0.292870816602,1.21173667369,-0.609755582522,0,-1.21173667369,-15.3775027573,1.4024378398,-0.0,15.3775027573,1.2
12.770763,-0.360794830359,0.54878002427,0,0.360794830359,1.13176042551,-0.914633373783,0,-1.13176042551,-15.5111263391,1.2804867233,-0.0,15.5111263391,1.2
12.869213,-0.277749662222,0.365853349513,0,0.277749662222,1.12571117751,-0.914633373783,0,-1.12571117751,-15.6304421388,1.2804867233,-0.0,15.6304421388,1.2
12.95967,-0.279767180567,0.365853349513,0,0.279767180567,1.15566337545,-0.853657815531,0,-1.15566337545,-15.7488259263,1.52438895631,-0.0,15.7488259263,1.2
13.053458,-0.247417122949,0.365853349513,0,0.247417122949,1.18095168492,-0.975608932035,0,-1.18095168492,-15.8758979508,1.34146228155,-0.0,15.8758979508,1.2
13.147142,-0.262465497485,0.121951116504,0,0.262465497485,1.1437151525,-0.975608932035,0,-1.1437151525,-16.0015250132,1.4024378398,-0.0,16.0015250132,1.2
13.241955,-0.24461669208,0.426828907765,0,0.24461669208,1.13762234871,-0.670731140774,0,-1.13762234871,-16.1408848039,1.21951116504,-0.0,16.1408848039,1.2
13.337998,-0.228515664669,0.609755582522,0,0.228515664669,1.21355014055,-0.792682257279,0,-1.21355014055,-16.268384127,1.03658449029,-0.0,16.268384127,1.2
13.39892,-0.231355103526,0.304877791261,0,0.231355103526,1.17245161531,-0.853657815531,0,-1.17245161531,-16.3530812733,1.4024378398,-0.0,16.3530812733,1.2
13.490015,-0.229703677545,0.609755582522,0,0.229703677545,1.11215192202,-0.792682257279,0,-1.11215192202,-16.4738392259,1.21951116504,-0.0,16.4738392259,1.2
13.586313,-0.216033775274,0.365853349513,0,0.216033775274,1.06373863772,-0.853657815531,0,-1.06373863772,-16.6073743152,1.2804867233,-0.0,16.6073743152,1.2
13.682122,-0.271449709497,0.243902233009,0,0.271449709497,1.09959806716,-0.853657815531,0,-1.09959806716,-16.7312679901,1.21951116504,-0.0,16.7312679901,1.2
13.779173,-0.357570383785,0.182926674757,0,0.357570383785,1.11383701094,-0.975608932035,0,-1.11383701094,-16.868051694,1.4024378398,-0.0,16.868051694,1.2
13.876876,-0.351650940106,0.365853349513,0,0.351650940106,1.14332754917,-1.03658449029,0,-1.14332754917,-16.9918759287,1.15853560679,-0.0,16.9918759287,1.2
13.974658,-0.355724498382,0.365853349513,0,0.355724498382,1.13562716646,-0.853657815531,0,-1.13562716646,-17.1218783925,1.34146228155,-0.0,17.1218783925,1.2
14.072586,-0.390980747371,0.487804466018,0,0.390980747371,1.14913860931,-0.792682257279,0,-1.14913860931,-17.2512737136,1.34146228155,-0.0,17.2512737136,1.2
14.170736,-0.34488599453,0.609755582522,0,0.34488599453,1.15319171028,-0.853657815531,0,-1.15319171028,-17.3740579322,1.21951116504,-0.0,17.3740579322,1.2
14.268802,-0.278036432621,0.365853349513,0,0.278036432621,1.25473305047,-0.670731140774,0,-1.25473305047,-17.5002455675,1.52438895631,-0.0,17.5002455675,1.2
14.367103,-0.310796442555,0.365853349513,0,0.310796442555,1.18213042238,-0.792682257279,0,-1.18213042238,-17.6332573511,1.15853560679,-0.0,17.6332573511,1.2
14.463731,-0.243522128978,0.243902233009,0,0.243522128978,1.27179083966,-0.975608932035,0,-1.27179083966,-17.7630599697,1.2804867233,-0.0,17.7630599697,1.2
14.560948,-0.24619223527,0.243902233009,0,0.24619223527,1.14750370113,-1.03658449029,0,-1.14750370113,-17.9029749501,1.4024378398,-0.0,17.9029749501,1.2
14.658673,-0.269152102939,0.243902233009,0,0.269152102939,1.16052692852,-0.853657815531,0,-1.16052692852,-18.0386612388,1.2804867233,-0.0,18.0386612388,1.2
14.75682,-0.211863984512,0.304877791261,0,0.211863984512,1.17506258215,-1.15853560679,0,-1.17506258215,-18.1658636154,1.21951116504,-0.0,18.1658636154,1.2
14.8547,-0.215403932677,0.487804466018,0,0.215403932677,1.24376859916,-0.731706699026,0,-1.24376859916,-18.2990139606,1.21951116504,-0.0,18.2990139606,1.2
14.952153,-0.189591481883,0.54878002427,0,0.189591481883,1.19918108116,-0.792682257279,0,-1.19918108116,-18.429531356,1.34146228155,-0.0,18.429531356,1.2
15.049694,-0.221388668928,0.426828907765,0,0.221388668928,1.17163433582,-0.731706699026,0,-1.17163433582,-18.561256117,1.34146228155,-0.0,18.561256117,1.2
15.147798,-0.230459220907,0.304877791261,0,0.230459220907,1.21868055816,-0.792682257279,0,-1.21868055816,-18.6924481325,1.2804867233,-0.0,18.6924481325,1.2
15.245632,-0.220705783671,0.426828907765,0,0.220705783671,1.24129879541,-0.792682257279,0,-1.24129879541,-18.8179304951,1.21951116504,-0.0,18.8179304951,1.2
15.343283,-0.309189923871,0.365853349513,0,0.309189923871,1.19957992167,-0.853657815531,0,-1.19957992167,-18.9484864953,1.4024378398,-0.0,18.9484864953,1.2
15.441178,-0.264284222705,0.243902233009,0,0.264284222705,1.17421131278,-0.975608932035,0,-1.17421131278,-19.078267446,1.34146228155,-0.0,19.078267446,1.2
15.539725,-0.265168349664,0.426828907765,0,0.265168349664,1.26661430119,-0.792682257279,0,-1.26661430119,-19.1990035961,1.21951116504,-0.0,19.1990035961,1.2
15.636648,-0.272334459982,0.426828907765,0,0.272334459982,1.17707733376,-0.670731140774,0,-1.17707733376,-19.3266169417,1.2804867233,-0.0,19.3266169417,1.2
15.733799,-0.243451740558,0.426828907765,0,0.243451740558,1.12179865451,-0.975608932035,0,-1.12179865451,-19.4510849698,1.09756004854,-0.0,19.4510849698,1.2
15.830793,-0.226409736864,0.487804466018,0,0.226409736864,1.18658063091,-0.670731140774,0,-1.18658063091,-19.5768987159,1.4024378398,-0.0,19.5768987159,1.2
15.928145,-0.173668418495,0.487804466018,0,0.173668418495,1.16112852006,-0.731706699026,0,-1.16112852006,-19.7092287049,1.34146228155,-0.0,19.7092287049,1.2
16.024908,-0.179019599352,0.487804466018,0,0.179019599352,1.15439894467,-0.914633373783,0,-1.15439894467,-19.835535738,1.2804867233,-0.0,19.835535738,1.2
16.122593,-0.266174273733,0.243902233009,0,0.266174273733,1.24503696813,-1.15853560679,0,-1.24503696813,-19.9619983202,1.21951116504,-0.0,19.9619983202,1.2
16.219936,-0.310222170402,0.182926674757,0,0.310222170402,1.26046962237,-0.975608932035,0,-1.26046962237,-20.0940617742,1.21951116504,-0.0,20.0940617742,1.2
16.315803,-0.347849331469,0.304877791261,0,0.347849331469,1.16913440429,-0.609755582522,0,-1.16913440429,-20.2133101472,1.21951116504,-0.0,20.2133101472,1.2
16.410966,-0.400046216037,0.426828907765,0,0.400046216037,1.2180994264,-0.853657815531,0,-1.2180994264,-20.3467295654,1.2804867233,-0.0,20.3467295654,1.2
16.509114,-0.349507703631,0.182926674757,0,0.349507703631,1.16333650147,-0.731706699026,0,-1.16333650147,-20.4747557469,0.975608932035,-0.0,20.4747557469,1.2
16.60745,-0.364314423395,0.243902233009,0,0.364314423395,1.19615021072,-0.914633373783,0,-1.19615021072,-20.6155233965,1.34146228155,-0.0,20.6155233965,1.2
16.706371,-0.442918605212,0.243902233009,0,0.442918605212,1.25711332237,-0.853657815531,0,-1.25711332237,-20.7477181669,1.21951116504,-0.0,20.7477181669,1.2
16.804798,-0.381196908762,0.304877791261,0,0.381196908762,1.26394063722,-1.03658449029,0,-1.26394063722,-20.860326943,1.15853560679,-0.0,20.860326943,1.2
16.90299,-0.382841057991,0.121951116504,0,0.382841057991,1.17277680337,-0.853657815531,0,-1.17277680337,-21.0033736692,1.52438895631,-0.0,21.0033736692,1.2
17.001796,-0.369779119379,0.304877791261,0,0.369779119379,1.17711147482,-0.914633373783,0,-1.17711147482,-21.1401912329,1.2804867233,-0.0,21.1401912329,1.2
17.101192,-0.386539443425,0.365853349513,0,0.386539443425,1.18378505246,-0.853657815531,0,-1.18378505246,-21.2554741326,1.21951116504,-0.0,21.2554741326,1.2
17.200258,-0.338838386886,0.182926674757,0,0.338838386886,1.19067905166,-0.975608932035,0,-1.19067905166,-21.3879477524,1.4024378398,-0.0,21.3879477524,1.2
17.29892,-0.340690754193,0.304877791261,0,0.340690754193,1.17673667166,-0.853657815531,0,-1.17673667166,-21.5145422135,1.21951116504,-0.0,21.5145422135,1.2
17.397958,-0.320389631814,0.304877791261,0,0.320389631814,1.15071266281,-0.670731140774,0,-1.15071266281,-21.6321715765,1.2804867233,-0.0,21.6321715765,1.2
17.496304,-0.37227598871,0.304877791261,0,0.37227598871,1.0230400143,-0.792682257279,0,-1.0230400143,-21.7782423716,1.58536451456,-0.0,21.7782423716,1.2
17.595278,-0.226713272227,0.426828907765,0,0.226713272227,1.07062148536,-0.975608932035,0,-1.07062148536,-21.9015143088,0.914633373783,-0.0,21.9015143088,1.2
17.694102,-0.297026850009,0.54878002427,0,0.297026850009,1.05593000353,-0.731706699026,0,-1.05593000353,-22.0049481072,1.34146228155,-0.0,22.0049481072,1.2
17.792408,-0.203309783592,0.365853349513,0,0.203309783592,1.10479573081,-0.670731140774,0,-1.10479573081,-22.1521225694,1.70731563106,-0.0,22.1521225694,1.2
17.890691,-0.250499014715,0.121951116504,0,0.250499014715,1.2058905178,-0.853657815531,0,-1.2058905178,-22.2807323527,1.21951116504,-0.0,22.2807323527,1.2
17.989842,-0.21229479412,0.487804466018,0,0.21229479412,1.0988055726,-0.731706699026,0,-1.0988055726,-22.4083158303,1.64634007281,-0.0,22.4083158303,1.2
18.088143,-0.276557804079,0.54878002427,0,0.276557804079,1.06242522292,-0.731706699026,0,-1.06242522292,-22.5492525048,1.15853560679,-0.0,22.5492525048,1.2
18.187009,-0.235807090415,0.670731140774,0,0.235807090415,1.12589929018,-0.853657815531,0,-1.12589929018,-22.6578927196,1.34146228155,-0.0,22.6578927196,1.2
18.28529,-0.268307627224,0.487804466018,0,0.268307627224,1.17379225079,-0.731706699026,0,-1.17379225079,-22.8043989299,1.4024378398,-0.0,22.8043989299,1.2
18.383707,-0.308120711143,0.304877791261,0,0.308120711143,1.21924618839,-1.03658449029,0,-1.21924618839,-22.9308158887,1.09756004854,-0.0,22.9308158887,1.2
18.482435,-0.391836025251,0.243902233009,0,0.391836025251,1.18285420243,-0.670731140774,0,-1.18285420243,-23.0494967497,1.64634007281,-0.0,23.0494967497,1.2
18.580961,-0.398554522826,0.365853349513,0,0.398554522826,1.24047448709,-0.792682257279,0,-1.24047448709,-23.196978828,1.4024378398,-0.0,23.196978828,1.2
18.679631,-0.438671118984,0.609755582522,0,0.438671118984,1.24256085387,-0.853657815531,0,-1.24256085387,-23.3033385272,1.09756004854,-0.0,23.3033385272,1.2
18.778241,-0.39430942633,0.243902233009,0,0.39430942633,1.19811850786,-0.914633373783,0,-1.19811850786,-23.4330205934,1.46341339805,-0.0,23.4330205934,1.2
18.876438,-0.360106035242,0.731706699026,0,0.360106035242,1.05611996235,-0.731706699026,0,-1.05611996235,-23.6066336549,1.64634007281,-0.0,23.6066336549,1.2
18.975128,-0.263392355287,0.609755582522,0,0.263392355287,1.12008182611,-0.731706699026,0,-1.12008182611,-23.7176204125,0.792682257279,-0.0,23.7176204125,1.2
19.074315,-0.253477610065,0.243902233009,0,0.253477610065,1.10887814406,-0.853657815531,0,-1.10887814406,-23.8430434879,1.76829118931,-0.0,23.8430434879,1.2
19.173823,-0.199313450481,0.609755582522,0,0.199313450481,1.1200590975,-0.792682257279,0,-1.1200590975,-24.0078496539,1.2804867233,-0.0,24.0078496539,1.2
19.272773,-0.196138288923,0.365853349513,0,0.196138288923,1.10786410059,-0.731706699026,0,-1.10786410059,-24.0913304543,0.609755582522,-0.0,24.0913304543,1.2
19.371187,-0.232632104984,0.304877791261,0,0.232632104984,1.12407764621,-0.731706699026,0,-1.12407764621,-24.2307519222,1.89024230582,-0.0,24.2307519222,1.2
19.468869,-0.270723426777,0.487804466018,0,0.270723426777,1.210390846,-0.975608932035,0,-1.210390846,-24.3850323189,1.03658449029,-0.0,24.3850323189,1.2
19.567459,-0.310470973636,0.365853349513,0,0.310470973636,1.17127882555,-0.609755582522,0,-1.17127882555,-24.4729336527,0.975608932035,-0.0,24.4729336527,1.2
19.666183,-0.28746689195,0.487804466018,0,0.28746689195,1.15231999242,-0.670731140774,0,-1.15231999242,-24.6216496516,1.52438895631,-0.0,24.6216496516,1.2
19.764684,-0.306842963244,0.487804466018,0,0.306842963244,1.24646460552,-0.792682257279,0,-1.24646460552,-24.7460247963,0.975608932035,-0.0,24.7460247963,1.2
19.863676,-0.319357390531,0.609755582522,0,0.319357390531,1.18274461415,-0.609755582522,0,-1.18274461415,-24.8491069915,1.4024378398,-0.0,24.8491069915,1.2
19.961619,-0.331119374211,0.365853349513,0,0.331119374211,1.16907564957,-0.792682257279,0,-1.16907564957,-25.0244290985,1.64634007281,-0.0,25.0244290985,1.2
20.060283,-0.290531277774,0.243902233009,0,0.290531277774,1.17955345115,-0.792682257279,0,-1.17955345115,-25.1393012595,0.731706699026,-0.0,25.1393012595,1.2
20.159011,-0.266553315047,0.487804466018,0,0.266553315047,1.19397737381,-0.670731140774,0,-1.19397737381,-25.2512828208,1.52438895631,-0.0,25.2512828208,1.2
20.257864,-0.263899078075,0.365853349513,0,0.263899078075,1.1680274568,-0.792682257279,0,-1.1680274568,-25.4169653788,1.4024378398,-0.0,25.4169653788,1.2
20.357135,-0.355981233617,0.0609755582522,0,0.355981233617,1.19843734098,-0.914633373783,0,-1.19843734098,-25.5184179798,0.914633373783,-0.0,25.5184179798,1.2
20.454803,-0.379532792703,0.304877791261,0,0.379532792703,1.18224593877,-0.670731140774,0,-1.18224593877,-25.6461706096,1.82926674757,-0.0,25.6461706096,1.2
20.552989,-0.31124389146,0.365853349513,0,0.31124389146,1.19733864018,-0.853657815531,0,-1.19733864018,-25.7988097066,1.09756004854,-0.0,25.7988097066,1.2
20.651038,-0.225808662733,0.426828907765,0,0.225808662733,1.17923762159,-0.792682257279,0,-1.17923762159,-25.8980245583,0.914633373783,-0.0,25.8980245583,1.2
20.749461,-0.261638251115,0.243902233009,0,0.261638251115,1.18342512203,-0.792682257279,0,-1.18342512203,-26.0532204178,1.58536451456,-0.0,26.0532204178,1.2
20.848684,-0.359956953459,0.121951116504,0,0.359956953459,1.08900061812,-0.914633373783,0,-1.08900061812,-26.188059704,0.975608932035,-0.0,26.188059704,1.2
20.947365,-0.191059964563,0.365853349513,0,0.191059964563,1.10715424003,-0.670731140774,0,-1.10715424003,-26.2969398584,1.52438895631,-0.0,26.2969398584,1.2
21.046018,-0.265458594042,0.304877791261,0,0.265458594042,1.13657459832,-0.914633373783,0,-1.13657459832,-26.4563783053,1.70731563106,-0.0,26.4563783053,1.2
21.144697,-0.292192042216,0.365853349513,15,15.2921920422,1.15110311623,-0.792682257279,15,13.8488968838,-26.5791861012,0.975608932035,-0.0,26.5791861012,1.2
21.243359,-0.29050897742,0.54878002427,15,15.2905089774,1.16292853403,-0.731706699026,15,13.837071466,-26.6939880153,1.46341339805,-0.0,26.6939880153,1.2
21.341276,-0.304545714189,0.426828907765,15,15.3045457142,1.17228864368,-0.487804466018,15,13.8277113563,-26.8392502218,1.09756004854,-0.0,26.8392502218,1.2
21.440211,-0.30132315287,0.609755582522,15,15.3013231529,1.21143866786,-0.792682257279,15,13.7885613321,-26.9321820407,0.670731140774,-0.0,26.9321820407,1.2
21.53868,-0.342431700628,0.426828907765,15,15.3424317006,1.16470347799,-0.54878002427,15,13.835296522,-27.071769083,1.82926674757,-0.0,27.071769083,1.2
21.637016,-0.311282474518,0.365853349513,15,15.3112824745,1.22062613918,-0.975608932035,15,13.7793738608,-27.2435880034,1.15853560679,-0.0,27.2435880034,1.2
21.73549,-0.261717935319,0.304877791261,15,15.2617179353,1.16090006671,-1.03658449029,15,13.8390999333,-27.3418386101,1.09756004854,-0.0,27.3418386101,1.2
21.83466,-0.339228579397,0.365853349513,15,15.3392285794,1.2088927966,-0.731706699026,15,13.7911072034,-27.4986731573,1.89024230582,-0.0,27.4986731573,1.2
21.932968,-0.362678681046,0.365853349513,15,15.362678681,1.22274686929,-1.03658449029,15,13.7772531307,-27.6329327994,1.15853560679,-0.0,27.6329327994,1.2
22.031549,-0.329531261648,0.609755582522,15,15.3295312616,1.17040745251,-0.54878002427,15,13.8295925475,-27.7313382001,1.4024378398,-0.0,27.7313382001,1.2
22.129387,-0.393502844078,0.609755582522,15,15.3935028441,1.18142758773,-0.670731140774,15,13.8185724123,-27.8736790567,1.34146228155,-0.0,27.8736790567,1.2
22.227953,-0.350308224141,0.426828907765,15,15.3503082241,1.22887554664,-0.914633373783,15,13.7711244534,-27.9791573216,0.853657815531,-0.0,27.9791573216,1.2
22.326818,-0.299701958458,0.304877791261,15,15.2997019585,1.29983080023,-0.731706699026,15,13.7001691998,-28.0980852764,1.64634007281,-0.0,28.0980852764,1.2
22.42499,-0.23278367847,0.182926674757,15,15.2327836785,1.1786576064,-1.09756004854,15,13.8213423936,-28.285325418,1.70731563106,-0.0,28.285325418,1.2
22.524001,-0.213980020116,0.243902233009,15,15.2139800201,1.18668805262,-0.975608932035,15,13.8133119474,-28.3869818328,0.914633373783,-0.0,28.3869818328,1.2
22.6223,-0.190643107662,0.426828907765,15,15.1906431077,1.12325212456,-0.731706699026,15,13.8767478754,-28.5017434956,1.76829118931,-0.0,28.5017434956,1.2
22.719818,-0.220609365978,0.609755582522,15,15.220609366,1.15856568184,-0.792682257279,15,13.8414343182,-28.6703261512,1.34146228155,-0.0,28.6703261512,1.2
22.818485,-0.273011611197,0.426828907765,15,15.2730116112,1.16200731805,-0.853657815531,15,13.8379926819,-28.7671944108,0.792682257279,-0.0,28.7671944108,1.2
22.916679,-0.306700074488,0.426828907765,15,15.3067000745,1.16887080654,-0.853657815531,15,13.8311291935,-28.892022511,1.58536451456,-0.0,28.892022511,1.2
23.01044,-0.345784135022,0.426828907765,15,15.345784135,1.16910311304,-0.731706699026,15,13.830896887,-29.0496057543,1.21951116504,-0.0,29.0496057543,1.2
23.107153,-0.290061572618,0.365853349513,15,15.2900615726,1.1793789112,-0.914633373783,15,13.8206210888,-29.1560539259,1.09756004854,-0.0,29.1560539259,1.2
23.204201,-0.22267189103,0.54878002427,15,15.222671891,1.17606590559,-0.792682257279,15,13.8239340944,-29.3028199461,1.82926674757,-0.0,29.3028199461,1.2
23.30157,-0.229009729933,0.426828907765,15,15.2290097299,1.16757349905,-0.914633373783,15,13.8324265009,-29.447814403,1.09756004854,-0.0,29.447814403,1.2
23.399534,-0.278053561674,0.54878002427,15,15.2780535617,1.13392740992,-0.975608932035,15,13.8660725901,-29.5492357,1.09756004854,-0.0,29.5492357,1.2
23.497822,-0.324619226583,0.487804466018,15,15.3246192266,1.13366199431,-0.731706699026,15,13.8663380057,-29.700165972,1.64634007281,-0.0,29.700165972,1.2
23.596426,-0.338745860973,0.243902233009,15,15.338745861,1.14585902142,-0.731706699026,15,13.8541409786,-29.8283228287,0.731706699026,-0.0,29.8283228287,1.2
23.694511,-0.304585902154,0.304877791261,15,15.3045859022,1.09762049789,-0.792682257279,15,13.9023795021,-29.9387107809,1.52438895631,-0.0,29.9387107809,1.2
23.793015,-0.322809405243,0.426828907765,15,15.3228094052,1.08979127033,-0.792682257279,15,13.9102087297,-30.096368534,1.58536451456,-0.0,30.096368534,1.2
23.891578,-0.358027976001,0.487804466018,15,15.358027976,1.09221333604,-0.792682257279,15,13.907786664,-30.2167267843,0.914633373783,-0.0,30.2167267843,1.2
23.989159,-0.291089163086,0.426828907765,15,15.2910891631,1.09993806335,-0.731706699026,15,13.9000619367,-30.3438450593,1.52438895631,-0.0,30.3438450593,1.2
24.087766,-0.277035210757,0.121951116504,15,15.2770352108,1.10204389626,-0.914633373783,15,13.8979561037,-30.492975203,1.52438895631,-0.0,30.492975203,1.2
24.185965,-0.333839996036,0.487804466018,15,15.333839996,1.12414238801,-0.975608932035,15,13.875857612,-30.6041314649,0.914633373783,-0.0,30.6041314649,1.2
24.284405,-0.415226124245,0.182926674757,15,15.4152261242,1.13425790048,-0.792682257279,15,13.8657420995,-30.7347700686,1.46341339805,-0.0,30.7347700686,1.2
24.382531,-0.387519927323,0.487804466018,15,15.3875199273,1.15531444753,-0.731706699026,15,13.8446855525,-30.8750407727,1.15853560679,-0.0,30.8750407727,1.2
24.481278,-0.413875674134,0.304877791261,15,15.4138756741,1.17320315819,-0.670731140774,15,13.8267968418,-30.9860750922,1.09756004854,-0.0,30.9860750922,1.2
24.579926,-0.422482991769,0.426828907765,15,15.4224829918,1.25963479981,-0.670731140774,15,13.7403652002,-31.1240206561,1.52438895631,-0.0,31.1240206561,1.2
24.678363,-0.401786553717,0.487804466018,15,15.4017865537,1.28594846001,-0.792682257279,15,13.71405154,-31.2564486294,0.975608932035,-0.0,31.2564486294,1.2
24.777344,-0.355429364203,0.54878002427,15,15.3554293642,1.32763837124,-0.670731140774,15,13.6723616288,-31.3723935226,1.34146228155,-0.0,31.3723935226,1.2
24.875844,-0.23065988146,0.426828907765,15,15.2306598815,1.24089848978,-0.853657815531,15,13.7591015102,-31.5232271729,1.46341339805,-0.0,31.5232271729,1.2
24.974512,-0.23605787981,0.426828907765,15,15.2360578798,1.27129118885,-0.914633373783,15,13.7287088111,-31.6485147839,1.09756004854,-0.0,31.6485147839,1.2
25.073494,-0.249690663108,0.304877791261,15,15.2496906631,1.25571566967,-0.792682257279,15,13.7442843303,-31.7734725807,1.52438895631,-0.0,31.7734725807,1.2
25.171917,-0.15910342003,0.243902233009,15,15.15910342,1.12851497708,-0.731706699026,15,13.8714850229,-31.9194975569,1.34146228155,-0.0,31.9194975569,1.2
25.270551,-0.0979740591532,0.243902233009,15,15.0979740592,1.08891858565,-0.853657815531,15,13.9110814144,-32.0366387093,1.09756004854,-0.0,32.0366387093,1.2
25.369222,-0.0953542555754,0.426828907765,15,15.0953542556,1.08209461941,-0.914633373783,15,13.9179053806,-32.1664364846,1.4024378398,-0.0,32.1664364846,1.2
25.467863,-0.192759434507,0.304877791261,15,15.1927594345,1.12315949158,-0.914633373783,15,13.8768405084,-32.3062901339,1.2804867233,-0.0,32.3062901339,1.2
25.566363,-0.248113286473,0.365853349513,15,15.2481132865,1.10914215466,-0.792682257279,15,13.8908578453,-32.4225025207,1.4024378398,-0.0,32.4225025207,1.2
25.66057,-0.385426885118,0.487804466018,15,15.3854268851,1.13718051661,-0.914633373783,15,13.8628194834,-32.5664206244,1.4024378398,-0.0,32.5664206244,1.2
25.759628,-0.307934894549,0.182926674757,15,15.3079348945,1.16774972063,-0.731706699026,15,13.8322502794,-32.6982583811,1.46341339805,-0.0,32.6982583811,1.2
25.858295,-0.322197863323,0.365853349513,15,15.3221978633,1.15145769202,-0.731706699026,15,13.848542308,-32.8193702416,1.34146228155,-0.0,32.8193702416,1.2
25.9576,-0.243546448086,0.304877791261,15,15.2435464481,1.13608822781,-0.609755582522,15,13.8639117722,-32.9600155608,1.34146228155,-0.0,32.9600155608,1.2
26.054762,-0.228561733186,0.304877791261,15,15.2285617332,1.12037523784,-0.853657815531,15,13.8796247622,-33.0859770325,1.09756004854,-0.0,33.0859770325,1.2
26.155036,-0.268077802268,0.243902233009,15,15.2680778023,1.13789141192,-0.853657815531,15,13.8621085881,-33.2052348826,1.34146228155,-0.0,33.2052348826,1.2
26.25322,-0.247581318182,0.426828907765,15,15.2475813182,1.22988418039,-0.975608932035,15,13.7701158196,-33.3448741592,1.2804867233,-0.0,33.3448741592,1.2
26.351659,-0.302890552038,0.54878002427,15,15.302890552,1.17791832472,-0.792682257279,15,13.8220816753,-33.4706392623,1.21951116504,-0.0,33.4706392623,1.2
26.450466,-0.355664206718,0.365853349513,15,15.3556642067,1.29070222676,-0.609755582522,15,13.7092977732,-33.6001611039,1.4024378398,-0.0,33.6001611039,1.2
26.548719,-0.302954215387,0.304877791261,15,15.3029542154,1.12915204149,-0.731706699026,15,13.8708479585,-33.739817044,1.2804867233,-0.0,33.739817044,1.2
26.647122,-0.298036201508,0.365853349513,15,15.2980362015,1.15724776524,-0.731706699026,15,13.8427522348,-33.8639497058,1.34146228155,-0.0,33.8639497058,1.2
26.74585,-0.252480715281,0.487804466018,15,15.2524807153,1.12804919601,-0.792682257279,15,13.871950804,-34.0046736622,1.64634007281,-0.0,34.0046736622,1.2
26.844248,-0.307328616021,0.365853349513,15,15.307328616,1.15637719928,-0.54878002427,15,13.8436228007,-34.1427471074,1.2804867233,-0.0,34.1427471074,1.2
26.942975,-0.273980708897,0.426828907765,15,15.2739807089,1.28610601799,-0.914633373783,15,13.713893982,-34.2645623631,1.21951116504,-0.0,34.2645623631,1.2
27.04109,-0.214943934177,0.426828907765,15,15.2149439342,1.22462361593,-0.914633373783,15,13.7753763841,-34.4036863566,1.34146228155,-0.0,34.4036863566,1.2
27.139448,-0.178893206466,0.243902233009,15,15.1788932065,1.11084692833,-0.670731140774,15,13.8891530717,-34.5319405613,1.34146228155,-0.0,34.5319405613,1.2
27.238526,-0.117420005055,0.487804466018,15,15.1174200051,1.12844643111,-0.853657815531,15,13.8715535689,-34.6628060982,1.4024378398,-0.0,34.6628060982,1.2
27.337379,-0.111924218498,0.182926674757,15,15.1119242185,1.17350160933,-0.731706699026,15,13.8264983907,-34.7942938298,1.15853560679,-0.0,34.7942938298,1.2
