Time, Altitude, Yaw, Pitch, Roll, Ax, Ay, Az, Pitch_rate, Roll_rate,Yaw_rate, Magx, Magy, Magz0.776600,-0.131594,-0.158395,0.041760,0.077939,0.234632,0.100556,9.787496,-0.020220,0.011706,0.000000,29.390625,88.034766,33.014648
0.876719,-0.171995,-0.320607,0.072032,0.192824,0.253785,0.090980,9.763554,-0.024477,0.011706,0.000000,29.034375,86.958984,30.940430
0.977088,-0.175607,-0.458972,0.082424,0.335258,0.215478,0.114922,9.892841,-0.020220,0.013835,0.002128,29.034375,86.958984,30.940430
1.077268,-0.148356,-0.564135,0.075357,0.502170,0.215478,0.153229,9.797073,-0.021284,0.009578,0.001064,29.034375,86.958984,30.940430
1.178567,-0.298306,-0.631300,0.059522,0.687800,0.301669,0.143652,9.873688,-0.022349,0.011706,-0.001064,30.103125,88.751953,32.323242
1.280395,-0.650696,-0.665177,0.045516,0.884586,0.282516,0.071826,9.782708,-0.021284,0.012771,0.000000,29.212500,87.138281,31.804688
1.381987,-0.221873,-0.676250,0.043356,1.086214,0.253785,0.129287,9.763554,-0.022349,0.013835,-0.001064,29.212500,87.138281,31.804688
1.483685,-0.353570,-0.680048,0.059452,1.287877,0.258574,0.043096,9.744401,-0.022349,0.011706,0.002128,29.568750,87.855469,32.150391
1.584877,-0.260251,-0.690186,0.093596,1.487278,0.263362,0.057461,9.734824,-0.022349,0.008514,-0.001064,28.321875,87.317578,32.668945
1.686468,-0.654996,-0.717345,0.140675,1.684707,0.272939,0.014365,9.854534,-0.021284,0.005321,0.002128,29.212500,86.779687,33.187500
1.788216,-0.146531,-0.767527,0.190772,1.882722,0.316035,0.095768,9.873688,-0.021284,0.008514,0.002128,29.212500,86.779687,33.187500
1.889862,-0.198733,-0.840270,0.232192,2.082472,0.234632,-0.019154,9.830592,-0.022349,0.010642,-0.003193,28.856250,87.138281,33.187500
1.991086,-0.548105,-0.927273,0.253926,2.283521,0.359130,0.033519,9.648633,-0.020220,0.009578,0.002128,30.993750,87.138281,32.841797
2.093189,-0.887720,-1.025098,0.254573,2.480983,0.263362,0.071826,9.811438,-0.021284,0.007450,-0.001064,28.143750,87.855469,34.224609
2.194367,-0.397953,-1.120953,0.227001,2.672922,0.344765,0.062249,9.902418,-0.022349,0.011706,-0.003193,30.459375,87.676172,32.323242
2.295606,-0.709821,-1.201890,0.170673,2.857973,0.339977,0.023942,9.610325,-0.021284,0.009578,-0.001064,30.459375,87.676172,32.323242
2.397284,-0.717828,-1.260560,0.085845,3.033302,0.363919,0.086191,9.744401,-0.019156,0.010642,-0.003193,28.500000,86.421094,34.224609
2.498433,-0.688848,-1.254375,0.029537,3.115682,0.354342,0.105345,9.782708,-0.021284,0.008514,0.000000,28.500000,86.421094,34.224609
2.599671,-0.705441,-1.238828,0.017837,3.127316,0.258574,0.019154,9.710882,-0.018092,0.009578,0.000000,29.568750,87.138281,32.841797
2.701114,-0.367506,-1.251928,0.036926,3.122509,0.344765,0.100556,9.706094,-0.022349,0.013835,-0.002128,29.568750,87.138281,32.841797
2.803491,-0.373167,-1.235179,0.019545,3.116739,0.282516,0.110133,9.730036,-0.026606,0.015963,0.000000,30.815625,87.676172,32.668945
2.904669,-0.790183,-1.258827,0.018435,3.121153,0.220267,0.162806,9.744401,-0.020220,0.011706,0.001064,30.281250,88.214062,32.496094
3.006368,-0.449959,-1.241287,0.019458,3.112322,0.263362,0.124498,9.710882,-0.023413,0.009578,-0.002128,30.281250,88.214062,32.496094
3.107583,-0.401259,-1.244606,0.034461,3.131199,0.325611,-0.014365,9.739612,-0.019156,0.009578,0.000000,29.568750,86.421094,33.533203
3.209438,-0.082993,-1.255766,0.022114,3.124002,0.282516,0.134075,9.777920,-0.020220,0.011706,0.000000,29.568750,86.421094,33.533203
3.310793,-0.825771,-1.254456,0.020500,3.115579,0.306458,0.148441,9.830592,-0.019156,0.010642,0.002128,29.212500,87.496875,32.841797
3.412389,-0.673684,-1.257376,-0.014311,3.104723,-0.019154,0.454898,10.208876,0.119193,0.320332,-0.103230,29.212500,87.496875,32.841797
3.513855,-0.588658,-1.230586,0.044100,-3.126496,0.373495,0.392649,9.490615,0.029798,0.045762,0.035119,30.281250,88.931250,31.458984
3.615202,-0.601613,-1.255478,0.052205,3.111581,0.651223,0.129287,9.409213,-0.024477,-0.051083,-0.003193,29.034375,87.317578,31.286133
3.717348,-0.672693,-1.250044,0.038897,3.115191,0.454898,0.143652,9.595960,-0.009578,-0.121322,-0.024477,29.746875,88.034766,33.706055
3.818880,-0.613254,-1.253757,0.014179,3.117688,0.124498,0.148441,9.749189,-0.013835,0.018092,0.006385,29.390625,88.393359,29.211914
3.920665,-0.599181,-1.264036,0.013937,3.128787,0.162806,0.124498,9.816227,-0.018092,0.011706,0.001064,29.390625,90.186328,31.286133
4.022277,-0.618154,-1.263283,0.004928,3.136834,0.062249,0.062249,9.744401,-0.021284,0.012771,0.004257,29.390625,90.186328,31.286133
4.123738,-0.648172,-1.248887,0.006191,3.117330,0.081403,0.196325,9.811438,-0.023413,0.012771,0.003193,29.390625,86.600391,31.286133
4.225216,-0.357875,-1.261965,-0.000665,3.128171,0.028730,0.143652,9.753978,-0.021284,0.012771,0.000000,28.678125,87.676172,30.594727
4.326439,-0.453737,-1.247629,0.012785,3.117356,0.134075,0.114922,9.725247,-0.022349,0.011706,0.000000,29.390625,88.393359,30.940430
4.427928,-0.769915,-1.247350,0.001364,3.116546,0.095768,0.263362,9.734824,-0.022349,0.011706,0.001064,29.925000,87.855469,29.039062
4.529646,-0.617127,-1.260969,0.013176,3.119199,0.095768,0.186748,9.792285,-0.023413,0.010642,0.002128,29.568750,88.931250,30.421875
4.631361,-0.755375,-1.248416,0.005559,3.124564,0.119710,0.110133,9.787496,-0.026606,0.008514,-0.003193,29.568750,88.931250,30.421875
4.732437,-0.595284,-1.244673,0.004287,3.133580,0.057461,0.129287,9.792285,-0.021284,0.011706,0.001064,29.568750,88.931250,30.421875
4.834099,-0.892478,-1.269208,0.012104,3.136055,0.071826,0.124498,9.710882,-0.022349,0.009578,0.003193,28.143750,88.214062,30.421875
4.935966,-0.630424,-1.259839,0.007612,3.116927,0.100556,0.110133,9.902418,-0.020220,0.014899,0.004257,28.678125,87.676172,29.903320
5.037407,-0.567924,-1.259409,0.007816,3.121425,0.110133,0.177171,9.811438,-0.022349,0.008514,-0.001064,28.678125,87.676172,29.903320
5.139321,-0.594760,-1.256720,-0.000846,3.123454,0.043096,0.138864,9.821015,-0.025541,0.011706,0.005321,28.678125,87.676172,29.903320
5.240138,-0.541719,-1.257062,0.009508,3.126241,0.086191,0.105345,9.701305,-0.022349,0.009578,0.003193,29.212500,89.289844,30.767578
5.341661,-0.829010,-1.250882,0.005589,3.118353,0.110133,0.177171,9.897630,-0.023413,0.013835,0.000000,29.925000,88.214062,29.730469
5.442440,-0.582145,-1.244683,0.001103,3.125562,0.057461,0.105345,9.739612,-0.024477,0.012771,0.004257,29.925000,88.214062,29.730469
5.544311,-0.650836,-1.257061,0.013963,3.110990,0.488417,0.713472,10.070012,-0.023413,0.011706,-0.012771,29.034375,88.034766,31.286133
5.645717,-0.246662,-1.254115,-0.000227,3.124370,0.086191,0.186748,9.806650,-0.022349,0.017028,0.012771,29.568750,87.855469,30.076172
5.747068,-0.683153,-1.268838,-0.002330,3.111574,0.090980,0.234632,9.782708,-0.019156,0.011706,0.002128,27.965625,88.034766,30.594727
5.848160,-0.465232,-1.269977,0.004594,3.135968,0.062249,0.086191,9.797073,-0.022349,0.008514,-0.001064,28.321875,89.469141,28.866211
5.949925,-0.460350,-1.273026,0.000562,3.133739,0.047884,0.129287,9.753978,-0.024477,0.004257,0.000000,28.321875,89.469141,28.866211
6.050874,-0.777246,-1.259517,0.041482,3.116743,0.555455,0.023942,9.591172,-0.024477,-0.014899,-0.023413,29.925000,87.496875,34.224609
6.152438,-0.584618,-1.256470,0.017481,3.134696,0.205901,0.086191,9.859322,-0.023413,0.005321,-0.006385,29.925000,87.496875,34.224609
6.253767,-0.590627,-1.257200,0.034587,3.130496,0.325611,0.057461,9.706094,-0.022349,0.011706,0.000000,29.568750,88.572656,33.533203
6.355856,-0.215812,-1.254189,0.013766,3.125218,0.263362,0.071826,9.907206,-0.022349,0.009578,-0.001064,29.568750,88.572656,33.533203
6.457311,-0.465597,-1.253380,0.019119,3.133440,0.215478,0.043096,9.792285,-0.019156,0.006385,0.000000,29.925000,88.572656,31.458984
6.558714,-0.226866,-1.261409,0.017780,3.130215,0.229843,0.086191,9.777920,-0.023413,0.008514,0.004257,29.034375,88.034766,33.360352
6.660087,-0.549988,-1.224140,0.032112,3.125555,0.306458,0.047884,9.639056,-0.019156,0.013835,0.000000,30.993750,86.421094,32.496094
6.761439,-0.546273,-1.241734,0.027479,3.130224,0.292093,0.043096,9.878476,-0.024477,0.008514,-0.001064,29.925000,86.779687,33.533203
6.863122,-0.213475,-1.249865,0.015680,3.119895,0.258574,0.177171,9.763554,-0.021284,0.012771,-0.002128,29.925000,86.779687,33.533203
6.963816,-0.471915,-1.255576,0.032867,3.128992,0.339977,0.081403,9.744401,-0.022349,0.007450,-0.001064,29.390625,86.958984,34.397461
7.064919,-0.383165,-1.248649,0.034449,3.124729,0.316035,0.086191,9.821015,-0.022349,0.011706,0.004257,30.815625,90.186328,33.014648
7.166709,-0.630606,-1.262489,0.037837,3.125536,0.359130,-0.004788,9.787496,-0.025541,-0.007450,0.007450,29.034375,88.034766,31.631836
7.268070,-0.273365,-1.245106,0.013625,-3.134531,-0.009577,-0.076614,9.864111,-0.123450,-0.133028,-0.020220,30.103125,88.034766,32.323242
7.369191,-0.367650,-1.238786,0.014053,3.129596,0.172383,0.067038,9.720459,-0.021284,0.008514,0.001064,31.350000,88.214062,32.496094
7.470791,-0.653765,-1.233459,0.017609,3.117452,0.201113,0.047884,9.840169,-0.018092,-0.041505,-0.005321,30.459375,87.317578,33.014648
7.572161,-0.363635,-1.245005,0.023867,3.130700,0.292093,0.071826,9.744401,-0.023413,0.009578,-0.003193,30.459375,87.317578,33.014648
7.673925,-0.515501,-1.255238,0.011578,3.138658,0.325611,-0.330400,8.911219,-0.137285,-0.113872,-0.155377,29.212500,87.496875,31.804688
7.774910,-0.645992,-1.258856,0.027252,3.134930,0.191536,0.043096,9.773131,-0.026606,0.011706,0.002128,28.321875,87.317578,31.977539
7.876735,-0.733590,-1.265188,0.043400,3.102545,0.478840,0.134075,9.581595,-0.024477,0.068110,-0.002128,27.965625,87.317578,32.668945
7.978542,-0.678633,-1.266271,0.017093,3.127641,0.119710,0.086191,9.753978,-0.024477,0.009578,0.001064,27.965625,87.317578,32.668945
8.080619,-0.629351,-1.245262,0.016684,3.131954,0.215478,0.105345,9.581595,-0.020220,0.009578,0.000000,30.637500,87.496875,33.878906
8.181886,-0.376098,-1.245153,0.030594,3.124094,0.339977,0.090980,9.686940,-0.023413,0.009578,0.000000,30.281250,86.421094,32.841797
8.283640,-0.608157,-1.239983,0.021127,3.127328,0.521936,-0.483629,11.252748,0.133028,0.178790,-0.078753,30.281250,86.421094,32.841797
8.385204,-0.504603,-1.241428,-0.002560,3.126722,-0.014365,0.138864,9.864111,0.024477,0.094716,0.030863,30.281250,86.421094,32.841797
8.486028,-0.590847,-1.256789,0.005265,3.120740,0.162806,0.244209,9.835380,-0.015963,0.019156,0.054275,29.925000,87.855469,30.421875
8.587562,-0.665902,-1.261744,-0.002089,3.121242,0.090980,0.162806,9.816227,-0.022349,0.009578,0.004257,29.568750,88.931250,32.841797
8.688959,-1.126986,-1.250399,0.006720,3.119106,0.100556,0.134075,9.811438,-0.021284,0.009578,0.001064,29.568750,88.931250,32.841797
8.789999,-1.275467,-1.268852,0.005390,3.124851,0.138864,0.100556,9.686940,-0.018092,0.015963,0.002128,28.143750,87.855469,31.804688
8.891755,-1.365430,-1.269110,0.006004,3.114692,0.124498,0.086191,9.634267,-0.030863,0.007450,0.004257,29.925000,88.572656,32.496094
8.993260,-2.001281,-1.255504,-0.012323,3.126693,-0.090980,0.158017,9.667786,-0.004257,0.043633,-0.014899,29.925000,88.572656,32.496094
9.094316,-1.637413,-1.259615,0.006821,3.138926,-0.038307,-0.110133,10.012551,-0.056404,-0.020220,0.002128,29.034375,88.034766,30.249023
9.196018,-1.705881,-1.253469,-0.005808,3.133327,-0.019154,0.090980,9.792285,-0.008514,0.023413,0.004257,29.746875,88.393359,33.706055
9.297476,-1.458041,-1.256441,0.009634,3.113967,0.100556,0.100556,9.572018,-0.014899,0.011706,0.005321,28.500000,88.931250,32.150391
9.399224,-1.357841,-1.276665,-0.002973,3.133451,-0.052672,0.052672,9.504981,-0.019156,0.013835,0.048954,27.965625,90.544922,35.434570
9.500503,-1.114221,-1.263779,0.008074,3.128426,0.124498,0.177171,9.696517,0.022349,0.000000,-0.006385,29.390625,88.751953,33.706055
9.602289,-0.968780,-1.267642,-0.007821,3.101137,0.081403,0.450110,9.725247,0.152184,0.017028,0.050019,28.321875,88.751953,33.360352
9.703561,-0.521442,-1.275462,-0.009431,3.077232,0.244209,0.679953,9.701305,0.554461,0.020220,0.121322,28.321875,88.751953,33.360352
9.805063,-0.636814,-1.314312,-0.014162,3.026661,0.172383,1.403002,9.481039,0.527855,-0.043633,0.024477,26.540625,87.317578,33.360352
9.906424,-0.852660,-1.387222,-0.007402,2.973248,0.244209,1.436521,9.481039,0.318203,0.025541,0.021284,21.553125,88.393359,34.051758
10.007859,-0.381779,-1.423143,-0.010284,2.913954,0.229843,2.164358,9.404424,0.334166,0.035119,0.027670,21.553125,88.393359,34.051758
10.109014,-0.520170,-1.492225,-0.011785,2.863751,0.100556,2.619257,9.246407,0.514020,0.067046,0.007450,17.456250,87.855469,37.335938
10.210465,-0.373111,-1.547837,0.006716,2.811246,0.052672,3.208230,9.121908,0.677911,0.068110,0.021284,11.934375,86.600391,39.928711
10.312211,-0.366867,-1.617234,0.032991,2.722348,0.052672,3.854665,8.815451,0.425690,0.018092,0.014899,11.934375,86.600391,39.928711
10.413621,-0.144307,-1.639208,0.039493,2.695734,0.067038,4.194641,8.738836,0.237322,-0.020220,0.028734,11.934375,86.600391,39.928711
10.514277,-0.402232,-1.684224,0.055876,2.699828,0.052672,4.223372,8.791508,0.086202,0.020220,-0.008514,7.125000,86.421094,39.410156
10.615918,-0.382904,-1.687940,0.080058,2.677494,0.191536,4.395754,8.623914,-0.002128,0.015963,0.017028,6.412500,87.138281,39.410156
10.717943,-0.297226,-1.709115,0.079061,2.681388,0.090980,4.338293,8.643068,-0.124514,0.004257,-0.005321,3.740625,86.241797,39.237305
10.819995,-0.194279,-1.687538,0.065872,2.700077,0.043096,4.247314,8.734048,-0.187303,0.007450,-0.002128,6.412500,84.986719,38.718750
10.921592,-0.169205,-1.681358,0.064490,2.728674,0.105345,4.036624,8.920795,-0.340552,-0.007450,0.008514,6.234375,87.317578,40.620117
11.022988,-0.282477,-1.648051,0.053302,2.765899,0.134075,3.572149,9.030929,-0.644920,-0.002128,-0.006385,8.728125,88.034766,40.274414
11.124190,-0.305097,-1.597575,0.023350,2.884066,0.153229,2.561796,9.495404,-0.978022,-0.029798,-0.059597,8.728125,88.034766,40.274414
11.225943,-0.361132,-1.489172,0.000007,2.974743,0.181959,1.948880,10.898406,-0.975894,-0.018092,0.014899,13.537500,86.779687,35.953125
11.327060,-0.441356,-1.451488,-0.000286,3.068278,0.177171,0.770933,9.816227,-0.649177,0.012771,-0.009578,13.537500,86.779687,35.953125
11.428706,-0.393614,-1.345703,0.011899,3.101745,0.268151,0.354342,9.950302,-0.640663,0.017028,0.021284,25.471875,87.317578,31.631836
11.530265,-0.657087,-1.279797,0.011584,3.118951,0.134075,0.225055,9.782708,-0.022349,0.009578,0.001064,27.431250,89.648438,33.187500
11.631675,-0.501717,-1.287380,-0.001314,3.131699,0.134075,0.110133,9.706094,-0.014899,0.010642,0.002128,26.184375,88.393359,32.323242
11.732804,-0.900826,-1.287937,0.001541,3.128419,0.043096,0.114922,9.830592,-0.018092,0.015963,-0.013835,26.718750,88.572656,33.187500
11.834955,-0.374390,-1.285922,0.014971,3.132456,0.172383,0.086191,9.911995,-0.020220,0.011706,-0.002128,26.718750,88.572656,33.187500
11.936978,-0.788051,-1.276434,0.008869,3.130913,0.124498,0.057461,9.782708,-0.018092,0.012771,0.000000,27.609375,88.393359,34.051758
12.038424,-0.628866,-1.290162,0.011971,3.129561,0.095768,0.124498,9.782708,-0.014899,0.011706,-0.001064,26.540625,89.469141,35.088867
12.140362,-0.667235,-1.287771,-0.008241,3.124311,0.100556,0.167594,9.749189,0.094716,-0.005321,-0.003193,27.253125,89.827734,36.125977
12.241799,-0.659249,-1.295085,-0.005186,3.097910,0.004788,0.373495,9.998186,0.339488,0.014899,0.001064,27.431250,90.365625,34.224609
12.344070,-0.375330,-1.354733,-0.020970,3.050625,-0.023942,0.909797,9.734824,0.524663,0.015963,0.005321,22.443750,89.289844,36.644531
12.445569,-0.527464,-1.414086,-0.016603,2.987344,0.067038,1.522712,9.864111,0.673654,-0.042569,-0.025541,19.593750,88.572656,36.644531
12.546694,-0.615096,-1.450173,0.000047,2.885476,0.306458,2.403778,9.634267,0.884370,-0.043633,0.024477,19.593750,88.572656,36.644531
12.647792,-0.707212,-1.561014,0.009598,2.789723,0.134075,3.404555,9.308656,0.738572,-0.020220,0.011706,14.962500,87.496875,38.027344
12.749590,-0.549780,-1.652169,0.066048,2.708314,0.244209,4.108450,8.868123,0.651305,0.044697,-0.010642,9.262500,86.062500,41.138672
12.851499,-0.460911,-1.697348,0.095303,2.648444,0.359130,4.673482,8.571242,0.481029,-0.063853,0.039376,5.343750,85.345312,39.064453
12.952363,-0.703634,-1.737050,0.115195,2.630387,0.162806,4.946421,8.599972,0.205395,0.009578,0.011706,2.137500,85.345312,39.755859
13.054284,-0.273274,-1.765792,0.132460,2.621683,0.186748,4.951209,8.408436,0.013835,0.060661,-0.010642,0.178125,84.807422,40.620117
13.155873,-0.395894,-1.747184,0.125372,2.614188,0.205901,4.970363,8.365341,-0.035119,0.034055,-0.007450,1.246875,84.448828,39.237305
13.257288,-0.611286,-1.752137,0.130596,2.638590,0.225055,5.003881,8.576030,-0.064918,0.036184,-0.009578,1.246875,84.448828,39.237305
13.358510,-0.799037,-1.749096,0.132648,2.627915,0.287304,4.936844,8.523358,-0.052147,0.009578,0.009578,0.890625,85.883203,39.237305
13.460144,-0.528685,-1.749035,0.110958,2.629959,0.134075,4.884171,8.547300,-0.220294,0.008514,-0.003193,1.246875,84.807422,39.583008
13.561566,-0.506947,-1.718449,0.081697,2.688712,0.138864,4.448427,8.825027,-0.627892,0.098973,0.039376,3.206250,84.269531,38.373047
13.662883,-0.484628,-1.671201,0.068191,2.731494,0.215478,3.964798,8.916007,-0.787526,0.107487,0.137285,5.521875,84.448828,38.545898
13.764208,-0.145132,-1.602085,0.031275,2.818888,0.205901,3.112462,9.203311,-0.876921,0.018092,0.012771,9.796875,85.883203,37.854492
13.865202,-0.652670,-1.530137,0.023277,2.925604,0.258574,2.030283,9.720459,-0.968444,-0.002128,-0.006385,14.071875,86.600391,36.817383
13.967165,-0.507662,-1.444531,0.006790,3.032847,0.148441,1.072602,9.830592,-0.604479,0.074496,-0.006385,21.375000,88.572656,34.224609
14.068498,-0.784642,-1.354851,0.001955,3.074820,0.110133,0.627281,9.581595,-0.504442,0.010642,-0.002128,21.375000,88.572656,34.224609
14.170072,-0.690924,-1.319857,0.003711,3.135209,0.129287,0.201113,9.744401,-0.059597,0.026606,-0.003193,22.800000,89.289844,33.533203
14.272069,-0.749873,-1.329651,0.006357,3.127223,0.110133,0.162806,9.849746,-0.027670,0.013835,-0.004257,22.800000,89.289844,33.533203
14.374010,-0.571156,-1.286762,0.019530,3.118336,0.225055,0.186748,9.873688,-0.019156,0.014899,0.000000,26.896875,89.827734,32.668945
14.475303,-0.663214,-1.289651,0.007494,3.121254,0.191536,0.167594,9.682152,-0.017028,0.013835,0.045762,26.362500,89.289844,33.187500
14.576671,-0.637202,-1.274375,0.001381,-3.137919,-0.028730,-0.009577,9.907206,0.062789,-0.022349,0.017028,26.362500,89.289844,33.187500
14.678368,-0.522590,-1.288106,0.013760,-3.141376,0.129287,0.000000,10.098743,0.247964,0.006385,0.030863,26.184375,88.393359,31.286133
14.780212,-0.653002,-1.311961,-0.012147,3.059102,0.134075,0.751779,9.902418,0.508699,0.007450,0.004257,26.184375,88.393359,31.286133
14.881899,-0.856785,-1.375112,0.008833,2.973043,0.306458,1.537077,9.864111,0.786462,-0.127707,-0.008514,23.156250,89.289844,34.570312
14.983679,-0.581307,-1.475667,0.042182,2.862640,0.531513,2.537854,9.538499,1.086573,-0.264992,-0.098973,16.921875,86.600391,34.743164
15.086223,-0.822206,-1.576020,0.057507,2.739940,0.512359,3.773262,9.045294,0.755599,0.063853,-0.005321,12.468750,84.269531,36.644531
15.187309,-0.642285,-1.689579,0.086832,2.680066,0.263362,4.410119,8.738836,0.154313,0.045762,0.011706,4.275000,85.345312,37.335938
15.289412,-0.216768,-1.697482,0.111357,2.711617,0.502782,4.170699,8.762778,-0.490607,-0.041505,-0.009578,2.850000,84.269531,39.064453
15.390882,-0.632734,-1.637767,0.102885,2.782437,0.933739,3.509900,9.030929,-1.170647,0.273506,0.146863,7.837500,84.269531,38.718750
15.493282,-0.245854,-1.554630,0.025820,2.907226,0.244209,2.183512,9.696517,-1.178096,0.233065,0.013835,13.003125,85.166016,35.434570
15.595384,-0.038199,-1.463334,0.002636,3.069065,1.120486,0.675165,9.485827,-2.124192,-0.028734,-0.067046,20.840625,88.393359,34.743164
15.697382,-0.339113,-1.353794,0.002901,3.110502,0.167594,0.153229,9.667786,-0.022349,0.009578,0.003193,26.362500,87.138281,29.730469
15.799244,-0.750896,-1.284152,0.011799,3.130640,0.067038,0.119710,9.734824,-0.024477,0.007450,-0.014899,26.362500,87.138281,29.730469
15.900468,-0.803806,-1.306511,-0.023021,3.121011,0.866701,-1.450886,11.674127,0.011706,-0.605544,-0.361836,26.540625,88.393359,30.594727
16.002747,-0.622575,-1.277262,0.034671,3.122403,0.311246,0.124498,9.749189,-0.015963,0.002128,-0.002128,27.075000,86.779687,31.458984
16.104496,-0.519840,-1.282733,0.020657,3.114641,0.287304,0.143652,9.840169,-0.020220,0.006385,0.000000,26.184375,88.034766,31.631836
16.206243,-0.497264,-1.286657,0.017816,3.130695,0.349553,0.105345,9.797073,-0.020220,0.012771,-0.001064,26.184375,88.034766,31.631836
16.308716,-0.270914,-1.281619,0.033549,3.122744,0.316035,0.153229,9.859322,-0.017028,0.010642,0.001064,27.431250,88.214062,32.496094
16.410171,-0.380548,-1.283753,0.038268,3.132505,0.335188,0.071826,9.634267,-0.018092,0.007450,-0.003193,26.896875,88.034766,31.631836
16.512134,-0.712240,-1.280584,0.041297,3.120103,0.335188,0.100556,9.782708,-0.017028,0.005321,0.001064,26.896875,88.034766,31.631836
16.613946,-0.404673,-1.282611,0.036312,3.110477,0.277727,0.148441,9.667786,-0.021284,0.011706,-0.001064,26.896875,88.034766,31.631836
16.716113,-0.649296,-1.295071,0.022991,3.137162,0.258574,0.100556,9.749189,-0.023413,0.012771,-0.001064,26.006250,88.214062,32.841797
16.817796,-0.522382,-1.280854,0.026631,3.136098,0.330400,0.009577,9.840169,-0.022349,0.009578,0.002128,27.253125,89.110547,33.014648
16.919492,0.022277,-1.277233,0.030533,3.121711,0.339977,0.153229,9.696517,-0.021284,0.013835,-0.001064,27.609375,87.676172,33.014648
17.021915,-0.538886,-1.265939,0.032596,3.118344,0.363919,0.086191,9.859322,-0.020220,0.009578,0.001064,27.787500,87.496875,33.187500
17.123756,-0.378128,-1.274761,0.019953,3.113591,0.263362,0.124498,9.816227,-0.021284,0.012771,0.000000,27.075000,88.214062,32.496094
17.225614,-0.910618,-1.269339,0.031372,3.125080,0.330400,0.062249,9.821015,-0.020220,0.010642,0.000000,27.965625,86.958984,31.977539
17.327883,-0.551835,-1.263303,0.043639,3.125139,0.378284,0.033519,9.811438,-0.019156,0.010642,-0.001064,28.500000,88.931250,32.496094
17.429993,-0.288909,-1.263868,0.025718,3.107068,0.311246,0.105345,9.739612,-0.022349,0.008514,0.000000,28.500000,88.931250,32.496094
17.532158,-0.369739,-1.268063,0.029761,3.134865,0.339977,0.062249,9.691728,-0.021284,0.010642,-0.001064,28.321875,87.317578,32.668945
17.633640,-0.480268,-1.260328,0.031157,3.121148,0.349553,0.004788,9.806650,-0.025541,0.009578,0.004257,27.431250,86.421094,32.150391
17.736937,-0.331774,-1.259604,0.020622,3.130101,0.301669,0.043096,9.773131,-0.023413,0.013835,-0.003193,28.321875,86.600391,32.323242
17.839203,-0.546772,-1.266582,0.032057,3.128999,0.244209,0.014365,9.763554,-0.020220,0.013835,-0.001064,27.787500,87.138281,31.804688
17.940321,-0.418086,-1.271719,0.034492,3.124362,0.339977,0.124498,9.710882,-0.022349,0.014899,-0.001064,28.500000,87.855469,31.458984
18.042386,-0.349409,-1.261135,0.032691,3.121848,0.363919,0.110133,9.792285,-0.020220,0.008514,-0.001064,28.321875,86.958984,32.323242
18.143978,-0.557583,-1.263232,0.034336,3.139331,0.311246,-0.004788,9.787496,-0.021284,0.007450,0.002128,28.321875,86.958984,32.323242
18.246449,-0.888062,-1.261297,0.020791,3.113541,0.282516,0.181959,9.782708,-0.019156,0.014899,0.001064,28.321875,86.958984,32.323242
18.348183,-0.554518,-1.265519,0.025850,3.111326,0.335188,0.167594,9.821015,-0.021284,0.010642,0.002128,27.787500,86.779687,33.187500
18.450574,-0.433014,-1.277421,0.042624,3.125169,0.354342,0.076614,9.634267,-0.020220,0.013835,0.000000,27.253125,88.034766,32.668945
18.552467,-0.183159,-1.276751,0.029484,3.135507,0.311246,0.081403,9.667786,-0.020220,0.011706,0.000000,27.787500,87.855469,32.496094
18.654135,-0.467214,-1.270599,0.022249,3.124699,0.296881,0.100556,9.744401,-0.024477,0.012771,0.001064,27.965625,88.034766,32.668945
18.756278,-0.878329,-1.270040,0.035819,3.134262,0.373495,-0.009577,9.710882,-0.019156,0.005321,-0.003193,27.431250,86.062500,31.458984
18.857619,-0.619350,-1.276003,0.035025,3.136666,0.335188,-0.009577,9.662998,-0.025541,0.015963,-0.003193,27.431250,88.214062,31.458984
18.958980,-0.641740,-1.289034,0.044490,3.136088,0.435745,0.004788,9.782708,-0.019156,0.009578,-0.001064,26.540625,88.751953,31.977539
19.060420,-0.679674,-1.289542,0.046034,3.135237,0.435745,0.014365,9.720459,-0.019156,0.000000,-0.003193,26.540625,88.751953,31.977539
19.162066,-0.576202,-1.288262,0.024494,3.134358,0.287304,0.043096,9.734824,-0.019156,0.011706,0.001064,26.540625,88.751953,31.977539
19.263785,-0.369035,-1.277117,0.029049,3.119374,0.339977,0.095768,9.619902,-0.021284,0.015963,-0.003193,26.718750,87.496875,32.496094
19.365577,-0.476012,-1.274471,0.019869,3.127450,0.277727,0.062249,9.825804,-0.022349,0.008514,0.000000,27.075000,87.138281,32.496094
19.466940,-0.673044,-1.268886,0.030764,3.123911,0.339977,0.138864,9.868899,-0.022349,0.010642,0.003193,28.143750,86.779687,31.804688
19.568431,-0.712938,-1.291018,0.028364,3.108719,0.330400,0.148441,9.811438,-0.021284,0.013835,0.002128,26.362500,88.572656,32.841797
19.670563,-0.879605,-1.269748,0.019048,3.134875,0.225055,0.014365,9.749189,-0.018092,0.011706,-0.002128,27.965625,88.034766,33.360352
19.771897,-0.056670,-1.268205,0.040318,3.120303,0.392649,0.086191,9.859322,-0.023413,0.009578,0.001064,27.965625,88.034766,33.360352
19.874367,-0.738471,-1.274819,0.033391,3.140969,0.363919,0.004788,9.811438,-0.020220,0.008514,0.000000,27.609375,87.676172,31.631836
19.976552,-0.304632,-1.278987,0.033686,3.132879,0.335188,0.033519,9.763554,-0.018092,0.013835,0.001064,27.075000,87.855469,32.841797
20.079070,-0.626570,-1.278606,0.021536,3.128856,0.205901,0.062249,9.667786,-0.018092,0.010642,-0.001064,27.075000,87.855469,32.841797
20.180405,-0.429674,-1.249704,0.035263,3.113599,0.359130,0.100556,9.696517,-0.021284,0.012771,0.001064,29.034375,86.600391,33.014648
20.282927,-0.409796,-1.267322,0.021517,3.120918,0.292093,0.100556,9.706094,-0.024477,0.013835,0.002128,27.609375,86.958984,33.014648
20.384601,-0.431200,-1.264315,0.021804,3.117951,0.301669,0.110133,9.763554,-0.018092,0.011706,0.001064,28.143750,88.572656,32.841797
20.486254,-0.751973,-1.260033,0.037018,3.121035,0.407014,0.019154,9.725247,-0.022349,0.012771,-0.001064,28.143750,87.855469,33.187500
20.588233,-0.751723,-1.262741,0.024766,3.110081,0.277727,0.134075,9.682152,-0.021284,0.010642,-0.001064,28.143750,87.855469,33.187500
20.690041,-0.227913,-1.271752,0.016602,3.123875,0.263362,0.071826,9.725247,-0.020220,0.010642,0.003193,27.253125,87.676172,32.668945
20.793884,-0.607464,-1.264546,0.032231,3.116386,0.258574,0.124498,9.662998,-0.021284,0.008514,0.000000,27.787500,87.496875,32.150391
20.897805,-0.721566,-1.263426,0.023351,3.113158,0.282516,0.090980,9.797073,-0.019156,0.010642,-0.001064,27.965625,88.034766,34.743164
20.997977,-0.740307,-1.266815,0.036376,3.114547,0.383072,0.105345,9.749189,-0.018092,0.010642,-0.001064,27.965625,88.034766,34.743164
21.098546,-0.811717,-1.269764,0.019866,3.133458,0.244209,0.047884,9.777920,-0.023413,0.010642,-0.002128,27.609375,86.600391,31.286133
21.200921,-0.635302,-1.263451,0.034701,3.129361,0.335188,0.019154,9.811438,-0.022349,0.013835,-0.001064,28.321875,87.676172,31.286133
21.302517,-0.737350,-1.265717,0.030043,3.134510,0.335188,0.004788,9.859322,-0.022349,0.009578,-0.002128,28.321875,87.676172,31.286133
21.403927,-0.742437,-1.268790,0.028433,3.126484,0.316035,0.081403,9.744401,-0.021284,0.007450,-0.001064,28.321875,87.676172,31.286133
21.505412,-0.778327,-1.281313,0.033289,3.122959,0.354342,0.057461,9.730036,-0.019156,0.008514,-0.003193,26.362500,88.214062,31.804688
21.607187,-0.757526,-1.280425,0.031264,3.136246,0.325611,0.014365,9.806650,-0.021284,0.006385,0.001064,27.075000,88.214062,33.187500
21.708669,-0.359468,-1.265114,0.040628,3.117090,0.354342,0.081403,9.720459,-0.022349,0.011706,0.000000,27.965625,88.034766,33.014648
21.812873,-0.828278,-1.266201,0.035678,3.120757,0.354342,0.076614,9.902418,-0.024477,0.008514,-0.002128,27.965625,87.676172,33.014648
21.912980,-0.819793,-1.264329,0.029965,3.122601,0.363919,0.153229,9.830592,-0.020220,0.012771,0.001064,28.321875,88.751953,33.360352
22.015243,-0.689318,-1.264849,0.044573,3.123884,0.387861,0.028730,9.677363,-0.018092,0.012771,0.001064,28.321875,88.751953,33.360352
22.116702,-0.807127,-1.263059,0.014052,3.123605,0.306458,0.081403,9.739612,-0.020220,0.012771,0.002128,28.321875,86.241797,31.286133
22.218684,-0.589935,-1.268792,0.035445,3.131599,0.335188,0.057461,9.854534,-0.024477,0.010642,0.001064,27.965625,86.958984,32.668945
22.320822,-0.594132,-1.267455,0.031356,3.120024,0.349553,0.086191,9.849746,-0.019156,0.009578,0.001064,27.787500,88.214062,33.533203
22.422320,-0.802014,-1.274158,0.028276,3.119621,0.359130,0.095768,9.730036,-0.022349,0.006385,0.002128,27.253125,87.317578,33.706055
22.524505,-0.571290,-1.264908,0.046782,3.122905,0.416591,0.095768,9.753978,-0.019156,0.008514,0.000000,28.856250,87.855469,32.841797
22.628154,-0.803967,-1.254485,0.025842,3.116487,0.330400,0.071826,9.763554,-0.022349,0.009578,0.000000,28.856250,87.855469,32.841797
22.728770,-0.391907,-1.267193,0.032270,3.131282,0.330400,0.067038,9.797073,-0.020220,0.010642,-0.004257,27.787500,85.703906,32.496094
22.830209,-0.672536,-1.270272,0.042178,3.126609,0.344765,0.100556,9.859322,-0.020220,0.008514,0.002128,27.787500,85.703906,32.496094
22.931940,-1.035367,-1.255817,0.026522,3.122046,0.301669,0.114922,9.725247,-0.024477,0.011706,0.001064,28.678125,87.676172,32.323242
23.033744,-0.423910,-1.288760,0.016595,3.130017,0.234632,0.119710,9.662998,-0.021284,0.010642,-0.003193,27.075000,88.214062,32.150391
23.138003,-0.494352,-1.282121,0.028889,3.135140,0.306458,0.028730,9.691728,-0.022349,0.010642,0.000000,26.362500,86.062500,32.841797
23.242924,-0.694486,-1.266784,0.024533,3.116767,0.339977,0.129287,9.734824,-0.023413,0.011706,0.001064,27.965625,87.317578,32.668945
23.342848,-0.513908,-1.283308,0.033157,3.127424,0.354342,0.047884,9.911995,-0.019156,0.010642,-0.002128,26.718750,86.779687,33.533203
23.443141,-0.523905,-1.284492,0.036642,3.134524,0.363919,-0.047884,9.744401,-0.022349,0.010642,0.001064,26.540625,87.676172,32.323242
23.544762,-0.565678,-1.286740,0.033386,3.134293,0.292093,0.081403,9.730036,-0.020220,0.012771,0.002128,26.540625,87.676172,32.323242
23.646491,-0.854211,-1.288021,0.012592,3.129066,0.244209,0.105345,9.797073,-0.020220,0.009578,-0.002128,26.540625,87.676172,32.323242
23.748990,-0.716065,-1.259505,0.022584,3.119220,0.268151,0.162806,9.792285,-0.021284,0.010642,0.002128,28.500000,87.496875,32.496094
23.850247,-0.345467,-1.270128,0.030619,3.132549,0.330400,0.033519,9.864111,-0.022349,0.006385,-0.002128,27.431250,87.496875,32.496094
23.951922,-0.607061,-1.286874,0.025275,3.129998,0.325611,0.110133,9.753978,-0.019156,0.012771,0.000000,26.718750,87.496875,32.150391
24.053500,-0.390056,-1.275973,0.028922,3.135215,0.330400,0.047884,9.868899,-0.024477,0.010642,0.002128,27.431250,87.138281,32.496094
24.155351,-0.657965,-1.274372,0.025933,3.111940,0.306458,0.167594,9.658209,-0.022349,0.012771,-0.002128,27.253125,88.034766,32.323242
24.256671,-0.621066,-1.256920,0.024930,3.115107,0.349553,0.095768,9.825804,-0.022349,0.010642,0.002128,28.321875,86.958984,33.014648
24.358754,-1.055346,-1.273127,0.030638,3.129391,0.330400,0.062249,9.706094,-0.020220,0.010642,0.002128,27.431250,87.855469,31.458984
24.460928,-0.731832,-1.272843,0.031716,3.137190,0.277727,-0.004788,9.696517,-0.017028,0.011706,-0.003193,27.431250,87.855469,31.458984
24.561953,-0.789870,-1.272672,0.029361,3.117872,0.325611,0.105345,9.787496,-0.021284,0.010642,0.000000,27.609375,89.110547,33.014648
24.664264,-0.715178,-1.270988,0.025977,3.111107,0.330400,0.205901,9.782708,-0.021284,0.007450,0.001064,27.431250,86.779687,32.841797
24.766428,-0.552241,-1.279034,0.036645,3.116890,0.430956,0.119710,9.840169,-0.021284,0.014899,-0.001064,27.075000,87.855469,33.187500
24.868610,-0.453506,-1.278569,0.036916,3.114330,0.344765,0.134075,9.739612,-0.021284,0.011706,0.000000,27.075000,87.855469,33.187500
24.970327,-0.455848,-1.272297,0.026462,3.126578,0.311246,0.110133,9.777920,-0.018092,0.012771,0.001064,27.787500,86.779687,32.496094
25.071730,-0.519380,-1.281543,0.027667,3.128525,0.316035,0.081403,9.830592,-0.021284,0.012771,0.001064,26.184375,86.958984,33.014648
25.173547,-0.456624,-1.285564,0.033115,3.132146,0.330400,0.028730,9.734824,-0.019156,0.008514,-0.002128,26.184375,86.958984,33.014648
25.274768,-0.482938,-1.259867,0.032038,3.130071,0.344765,0.023942,9.686940,-0.021284,0.011706,0.000000,28.500000,86.779687,32.496094
25.378859,-0.534829,-1.272271,0.021629,3.124362,0.253785,0.114922,9.859322,-0.026606,0.005321,0.002128,27.431250,87.855469,31.804688
25.480864,-0.668860,-1.270383,0.031736,3.103491,0.392649,0.153229,9.849746,-0.022349,0.011706,-0.002128,27.965625,87.676172,31.977539
25.581442,-0.801184,-1.272062,0.027719,3.125906,0.277727,0.067038,9.854534,-0.024477,0.009578,0.001064,27.609375,87.676172,32.668945
25.682978,-1.017131,-1.266586,0.027421,3.120807,0.258574,0.081403,9.859322,-0.020220,0.010642,0.002128,27.253125,86.958984,32.323242
25.784908,-0.408362,-1.276739,0.022739,3.129143,0.301669,0.090980,9.768343,-0.021284,0.006385,0.004257,27.253125,86.958984,32.323242
25.886445,-0.539514,-1.274363,0.039118,3.128267,0.397437,0.047884,9.734824,-0.021284,0.014899,0.002128,27.253125,86.958984,32.323242
25.988267,-1.017750,-1.282643,0.041178,3.125189,0.450110,0.019154,9.706094,-0.019156,0.012771,-0.002128,26.718750,87.855469,31.458984
26.089683,-0.447851,-1.285930,0.039744,3.127231,0.407014,0.057461,9.811438,-0.024477,0.012771,-0.002128,26.184375,86.600391,33.014648
26.192209,-0.467966,-1.284936,0.039921,3.109885,0.416591,0.158017,9.720459,-0.019156,0.010642,0.002128,26.184375,86.600391,33.014648
26.293075,-0.563479,-1.279795,0.032528,3.114658,0.359130,0.114922,9.782708,-0.020220,0.014899,-0.003193,26.184375,86.600391,33.014648
26.395432,-0.852405,-1.270430,0.028568,3.115712,0.344765,0.095768,9.797073,-0.021284,0.014899,0.001064,26.718750,85.703906,32.841797
26.497024,-0.321808,-1.270529,0.024603,3.114870,0.287304,0.119710,9.753978,-0.022349,0.009578,0.003193,26.718750,85.703906,32.841797
26.599022,-0.889919,-1.268057,0.036680,3.119733,0.368707,0.033519,9.734824,-0.020220,0.009578,0.002128,26.718750,85.703906,32.841797
26.700383,-0.580354,-1.280364,0.029103,3.118382,0.325611,0.057461,9.854534,-0.022349,0.007450,0.002128,26.006250,87.138281,32.496094
26.802140,-0.140347,-1.272067,0.031063,3.121194,0.344765,0.095768,9.830592,-0.019156,0.009578,-0.001064,26.896875,86.600391,31.977539
26.903235,-0.646477,-1.284437,0.027188,3.113748,0.325611,0.186748,9.811438,-0.020220,0.012771,0.000000,26.896875,86.600391,31.977539
27.004803,-0.705507,-1.266064,0.039328,3.121973,0.421379,0.090980,9.730036,-0.020220,0.007450,0.002128,28.500000,88.214062,31.804688
27.106842,-0.528217,-1.274286,0.016994,3.115848,0.311246,0.114922,9.768343,-0.023413,0.014899,0.000000,27.431250,87.138281,32.496094
27.208930,-0.449330,-1.275696,0.018876,3.129470,0.296881,0.129287,9.859322,-0.020220,0.010642,0.002128,27.965625,87.676172,31.977539
27.310650,-0.691716,-1.271294,0.027011,3.107955,0.339977,0.134075,9.787496,-0.020220,0.013835,-0.002128,27.609375,88.034766,33.360352
27.414780,-0.601103,-1.268761,0.028898,3.113060,0.311246,0.100556,9.897630,-0.021284,0.013835,-0.001064,27.609375,88.034766,33.360352
27.517326,-0.856638,-1.288463,0.019858,3.123533,0.272939,0.186748,9.706094,-0.019156,0.012771,0.000000,26.540625,86.958984,31.286133
27.618428,-0.692375,-1.267278,0.024972,3.110642,0.349553,0.186748,9.782708,-0.024477,0.012771,0.001064,28.321875,88.393359,33.360352
27.721629,-0.733565,-1.259500,0.033651,3.111932,0.344765,0.119710,9.849746,-0.021284,0.007450,0.003193,28.500000,88.214062,32.150391
27.825571,-0.501347,-1.269243,0.046471,3.134022,0.373495,0.033519,9.811438,-0.020220,0.011706,0.000000,27.609375,86.600391,31.977539
27.924842,-0.651610,-1.280160,0.034052,3.128414,0.344765,0.110133,9.773131,-0.022349,0.011706,-0.001064,27.431250,87.496875,33.533203
28.026839,-0.274990,-1.266159,0.029457,3.115975,0.330400,0.114922,9.720459,-0.019156,0.009578,-0.001064,27.787500,87.138281,32.496094
28.128363,-0.199532,-1.272554,0.022736,3.118317,0.277727,0.124498,9.868899,-0.023413,0.012771,0.002128,27.253125,88.034766,31.977539
28.230275,-0.547800,-1.272048,0.026481,3.118949,0.301669,0.105345,9.639056,-0.021284,0.012771,-0.001064,27.253125,88.034766,31.977539
28.331708,-0.740561,-1.281122,0.040330,3.122584,0.339977,0.067038,9.749189,-0.022349,0.012771,0.001064,26.006250,86.421094,31.804688
28.433619,-0.490964,-1.278245,0.027149,3.109414,0.311246,0.162806,9.667786,-0.020220,0.012771,0.000000,27.253125,86.958984,32.323242
28.535498,-0.492260,-1.280918,0.017888,3.116946,0.282516,0.129287,9.744401,-0.020220,0.012771,-0.002128,26.540625,87.676172,31.977539
28.637170,-0.155847,-1.293348,0.023193,3.132237,0.282516,0.071826,9.806650,-0.022349,0.014899,-0.004257,25.650000,87.138281,32.496094
28.741239,-0.636117,-1.278470,0.026133,3.122064,0.301669,0.119710,9.811438,-0.019156,0.011706,0.001064,27.431250,87.496875,33.533203
28.843700,-0.514614,-1.260088,0.034707,3.104871,0.392649,0.158017,9.734824,-0.023413,0.009578,0.001064,28.500000,88.214062,32.150391
28.944895,-0.535368,-1.267405,0.031027,3.112928,0.344765,0.105345,9.897630,-0.019156,0.008514,-0.002128,28.500000,88.214062,32.150391
29.045084,-0.603117,-1.267945,0.034730,3.117592,0.378284,0.100556,9.763554,-0.020220,0.013835,-0.001064,27.965625,88.393359,31.631836
29.146828,-1.163421,-1.286285,0.023661,3.131010,0.272939,0.047884,9.710882,-0.019156,0.012771,-0.001064,26.718750,88.572656,32.496094
29.249669,-0.638427,-1.267091,0.023487,3.125198,0.277727,0.071826,9.753978,-0.023413,0.010642,0.001064,27.965625,87.676172,31.631836
29.351004,-0.294921,-1.266871,0.021768,3.134671,0.272939,0.057461,9.725247,-0.021284,0.008514,-0.003193,27.787500,85.703906,32.841797
29.452891,-0.725204,-1.284798,0.027913,3.123473,0.354342,0.129287,9.706094,-0.019156,0.010642,0.000000,27.075000,88.214062,32.496094
29.555333,-0.838906,-1.261460,0.013014,3.122084,0.272939,0.134075,9.792285,-0.022349,0.013835,-0.002128,28.500000,86.779687,32.841797
29.656606,-0.546697,-1.253666,0.040093,3.119775,0.344765,0.043096,9.816227,-0.021284,0.009578,-0.003193,28.500000,86.779687,32.841797
29.758209,-0.785610,-1.275139,0.034975,3.133536,0.344765,0.009577,9.744401,-0.019156,0.012771,-0.001064,27.609375,88.393359,31.286133
29.860169,-0.790741,-1.293969,0.033598,3.134937,0.359130,0.076614,9.710882,-0.021284,0.012771,0.001064,25.650000,86.062500,32.841797
29.961369,-0.837229,-1.280333,0.033209,3.132254,0.349553,0.043096,9.744401,-0.021284,0.011706,0.001064,26.896875,86.958984,31.977539
30.063502,-0.777177,-1.277960,0.025063,3.126606,0.287304,0.067038,9.744401,-0.022349,0.010642,-0.001064,27.253125,88.751953,31.977539
30.164973,-0.283512,-1.278333,0.031039,3.135098,0.316035,0.000000,9.816227,-0.021284,0.011706,-0.003193,26.718750,86.421094,33.533203
30.270280,-0.201458,-1.270262,0.033083,3.131805,0.344765,0.023942,9.753978,-0.019156,0.011706,0.003193,28.143750,88.214062,32.841797
30.370082,-0.535594,-1.270507,0.030943,3.141543,0.316035,0.062249,9.624691,-0.022349,0.017028,0.004257,27.787500,88.572656,32.841797
30.471946,-0.470331,-1.273615,0.038686,3.111177,0.383072,0.148441,9.725247,-0.020220,0.012771,-0.002128,27.787500,88.572656,32.841797
30.573314,-0.387166,-1.296441,0.023925,3.129589,0.282516,0.095768,9.753978,-0.023413,0.008514,0.003193,25.471875,87.317578,31.631836
30.675155,-0.528230,-1.269629,0.032370,3.123293,0.359130,0.095768,9.787496,-0.021284,0.009578,0.001064,28.321875,88.034766,32.668945
30.776867,-0.216990,-1.256762,0.027378,3.117964,0.359130,0.047884,9.615114,-0.019156,0.011706,-0.002128,28.143750,87.496875,32.841797
30.879301,-0.120581,-1.285619,0.025751,3.129214,0.311246,0.095768,9.701305,-0.022349,0.010642,-0.003193,27.075000,88.931250,32.150391
30.980646,-0.559502,-1.278487,0.033377,3.124040,0.330400,0.081403,9.696517,-0.019156,0.013835,0.000000,26.718750,86.421094,32.150391
31.082575,-0.505215,-1.266631,0.037045,3.128218,0.339977,0.081403,9.792285,-0.022349,0.011706,0.000000,28.143750,88.214062,33.533203
31.183656,-0.435610,-1.268560,0.027300,3.114462,0.383072,0.134075,9.868899,-0.021284,0.011706,0.003193,28.143750,88.214062,33.533203
31.284764,-0.420368,-1.286494,0.019372,3.127770,0.253785,0.100556,9.878476,-0.023413,0.010642,0.001064,26.362500,87.496875,33.187500
31.386455,-0.684545,-1.270679,0.022324,3.124327,0.301669,0.095768,9.720459,-0.020220,0.007450,0.001064,27.787500,87.496875,32.841797
31.488066,-0.246673,-1.262531,0.028979,3.111430,0.325611,0.124498,9.859322,-0.022349,0.012771,0.001064,28.143750,86.779687,33.187500
31.589687,-0.341891,-1.256120,0.033346,3.121220,0.354342,0.081403,9.725247,-0.023413,0.010642,0.001064,28.321875,86.600391,32.323242
31.691486,-0.284506,-1.260572,0.037553,3.127488,0.272939,0.090980,9.734824,-0.024477,0.013835,-0.004257,28.856250,89.648438,31.458984
31.797415,-0.474503,-1.264274,0.027228,3.109936,0.325611,0.129287,9.730036,-0.018092,0.011706,0.003193,27.609375,86.600391,32.323242
31.897288,-0.284697,-1.271309,0.026703,3.121189,0.292093,0.110133,9.782708,-0.022349,0.009578,-0.001064,27.609375,86.600391,32.323242
31.998254,-0.231486,-1.277120,0.029191,3.108828,0.344765,0.167594,9.730036,-0.022349,0.011706,0.004257,26.718750,87.138281,32.496094
32.100482,-0.259310,-1.284591,0.028219,3.121403,0.301669,0.095768,9.916783,-0.019156,0.011706,-0.002128,26.718750,87.138281,32.496094
32.202417,-0.349833,-1.269761,0.025735,3.134945,0.301669,0.043096,9.710882,-0.020220,0.008514,0.002128,28.143750,87.855469,32.150391
32.305741,-0.410222,-1.267079,0.031804,3.117465,0.344765,0.071826,9.730036,-0.022349,0.009578,-0.001064,27.253125,88.034766,31.286133
32.409793,-0.754303,-1.267263,0.038729,3.119774,0.363919,0.043096,9.935937,-0.021284,0.008514,-0.001064,27.253125,88.034766,31.286133
32.510597,-0.660418,-1.276006,0.025157,3.127790,0.272939,0.067038,9.773131,-0.020220,0.010642,-0.001064,27.253125,86.958984,30.940430
32.611570,-0.740418,-1.281542,0.033471,3.128803,0.359130,0.067038,9.720459,-0.021284,0.012771,0.000000,26.718750,87.496875,33.533203
32.714599,-0.622662,-1.279672,0.022833,3.123812,0.296881,0.086191,9.821015,-0.020220,0.015963,0.000000,26.718750,87.496875,33.533203
32.816921,-0.570155,-1.272666,0.033210,3.134476,0.282516,-0.028730,9.706094,-0.021284,0.013835,0.002128,26.718750,87.496875,33.533203
32.918782,-0.249078,-1.277403,0.028256,3.133013,0.301669,0.023942,9.782708,-0.021284,0.011706,-0.002128,27.253125,88.034766,30.940430
33.020361,-0.682552,-1.275601,0.020345,3.125798,0.292093,0.052672,9.787496,-0.021284,0.010642,-0.004257,26.896875,87.676172,31.631836
33.121504,-0.332953,-1.275481,0.035837,3.123875,0.392649,0.057461,9.686940,-0.019156,0.011706,-0.002128,26.896875,87.676172,31.631836
33.223380,-0.442134,-1.255707,0.017262,3.139074,0.272939,0.033519,9.792285,-0.022349,0.009578,-0.003193,29.390625,88.393359,32.323242
33.325092,-0.607377,-1.267211,0.037302,3.136471,0.363919,-0.023942,9.730036,-0.019156,0.013835,-0.004257,27.787500,86.421094,32.150391
33.426762,-0.562151,-1.267531,0.032582,3.138822,0.325611,-0.009577,9.792285,-0.022349,0.015963,-0.001064,27.787500,86.421094,32.150391
33.528614,-0.306038,-1.271040,0.018253,3.118940,0.292093,0.143652,9.730036,-0.017028,0.011706,0.001064,27.787500,86.421094,32.150391
33.630749,-0.686932,-1.273805,0.019409,3.115118,0.339977,0.076614,9.849746,-0.019156,0.012771,0.002128,27.965625,89.110547,31.977539
33.732389,-0.480452,-1.260489,0.018174,3.120925,0.325611,0.095768,9.739612,-0.019156,0.010642,0.001064,28.321875,86.600391,31.631836
33.834394,-0.514350,-1.274117,0.018248,3.139956,0.229843,0.047884,9.696517,-0.022349,0.017028,0.001064,27.787500,88.214062,32.150391
33.935696,-0.594666,-1.264471,0.027607,3.115662,0.301669,0.086191,9.701305,-0.018092,0.012771,-0.001064,27.431250,86.779687,32.150391
34.037364,-0.455494,-1.275572,0.020936,3.132596,0.277727,0.052672,9.749189,-0.020220,0.008514,0.001064,26.718750,86.062500,32.150391
34.138694,-0.595212,-1.281192,0.026117,3.132501,0.296881,0.090980,9.749189,-0.022349,0.014899,-0.002128,26.718750,86.062500,32.150391
34.240365,-0.282492,-1.267293,0.025678,3.119310,0.316035,0.057461,9.696517,-0.021284,0.010642,-0.001064,26.896875,85.883203,32.668945
34.344049,-0.591081,-1.277825,0.031448,3.126572,0.316035,0.009577,9.662998,-0.025541,0.010642,0.001064,27.609375,88.393359,32.323242
34.444246,-0.488541,-1.258859,0.031346,3.118592,0.354342,0.057461,9.773131,-0.020220,0.011706,-0.001064,28.143750,87.138281,31.804688
34.546465,-0.525202,-1.264911,0.032629,3.115647,0.368707,0.119710,9.725247,-0.019156,0.010642,-0.001064,27.609375,86.241797,31.631836
34.647948,-0.222690,-1.260901,0.039680,3.117227,0.387861,0.043096,9.821015,-0.021284,0.013835,0.000000,27.609375,86.600391,32.668945
34.749892,-0.373998,-1.288591,0.045311,3.127712,0.378284,0.043096,9.854534,-0.021284,0.011706,0.002128,26.718750,88.572656,32.841797
34.851250,-0.551427,-1.285987,0.032533,3.133316,0.330400,-0.019154,9.725247,-0.021284,0.008514,0.001064,26.718750,88.931250,33.187500
34.952589,-0.244858,-1.285581,0.044222,3.115337,0.411803,0.081403,9.825804,-0.021284,0.011706,0.000000,26.718750,88.931250,33.187500
35.055025,-0.310636,-1.283935,0.030992,3.119109,0.339977,0.071826,9.658209,-0.020220,0.012771,-0.002128,26.006250,87.855469,32.150391
35.158004,-0.496716,-1.281895,0.034556,3.120737,0.344765,0.158017,9.749189,-0.019156,0.011706,0.000000,27.253125,88.034766,31.286133
35.259730,-0.417750,-1.269426,0.033644,3.128806,0.359130,0.067038,9.734824,-0.018092,0.009578,0.003193,27.965625,86.958984,32.668945
35.359868,-0.630880,-1.282831,0.028451,3.122887,0.330400,0.090980,9.725247,-0.021284,0.011706,-0.002128,26.718750,87.138281,31.804688
35.460807,-0.591036,-1.280260,0.026651,3.130992,0.292093,0.076614,9.777920,-0.020220,0.008514,0.001064,27.253125,88.034766,30.940430
35.562381,-0.716010,-1.281447,0.036234,3.129426,0.354342,0.057461,9.787496,-0.020220,0.013835,-0.002128,27.075000,88.572656,32.150391
35.663665,-0.692911,-1.269145,0.028027,3.130784,0.325611,0.081403,9.720459,-0.022349,0.010642,-0.002128,27.965625,86.600391,31.286133
35.765721,-0.631023,-1.284679,0.037599,3.115909,0.344765,0.124498,9.821015,-0.023413,0.014899,-0.003193,26.362500,86.421094,32.150391
35.866840,-0.483905,-1.282563,0.015991,3.123071,0.234632,0.138864,9.763554,-0.021284,0.010642,-0.001064,26.362500,86.421094,32.150391
35.969183,-0.421453,-1.287102,0.026425,3.122324,0.335188,0.158017,9.763554,-0.021284,0.011706,-0.001064,26.362500,86.421094,32.150391
36.070153,-0.216550,-1.273947,0.032881,3.119135,0.359130,0.081403,9.615114,-0.023413,0.013835,0.003193,26.718750,86.779687,31.458984
36.171927,-0.644172,-1.270302,0.036219,3.135461,0.354342,0.019154,9.648633,-0.021284,0.007450,-0.003193,27.965625,87.676172,33.360352
36.274377,-0.568980,-1.272442,0.026168,3.134931,0.325611,0.057461,9.720459,-0.021284,0.012771,-0.002128,27.965625,87.676172,33.360352
36.377839,0.105399,-1.283769,0.016945,3.131642,0.292093,0.095768,9.730036,-0.019156,0.010642,0.000000,26.896875,87.676172,32.668945
36.478571,-0.397113,-1.263188,0.044288,3.133769,0.359130,0.000000,9.730036,-0.022349,0.009578,0.000000,28.321875,87.676172,30.940430
36.579469,-0.447367,-1.281712,0.027342,3.125206,0.311246,0.119710,9.706094,-0.020220,0.012771,0.000000,26.896875,86.600391,33.360352
36.681323,-0.127560,-1.273734,0.034601,3.115931,0.411803,0.134075,9.840169,-0.018092,0.010642,-0.001064,27.075000,86.421094,32.150391
36.782457,-0.322410,-1.277391,0.032329,3.128493,0.354342,0.067038,9.806650,-0.021284,0.014899,0.000000,27.075000,86.421094,32.150391
36.884404,-0.186446,-1.276631,0.036530,3.121806,0.416591,0.081403,9.744401,-0.020220,0.007450,0.001064,27.075000,86.779687,31.804688
36.985634,-0.209161,-1.271133,0.041230,3.135034,0.392649,-0.071826,9.667786,-0.022349,0.013835,0.000000,27.787500,87.855469,32.150391
37.086387,-0.286187,-1.272736,0.036971,3.117844,0.311246,0.100556,9.782708,-0.023413,0.013835,-0.002128,27.609375,88.034766,32.668945
37.188146,-0.227313,-1.277037,0.024834,3.128629,0.287304,0.100556,9.720459,-0.021284,0.007450,0.002128,27.609375,88.034766,32.668945
37.289872,-0.598341,-1.252089,0.032865,3.114939,0.330400,0.105345,9.706094,-0.022349,0.013835,-0.001064,28.678125,86.241797,31.977539
37.391888,-0.530873,-1.251919,0.026190,3.112224,0.339977,0.090980,9.859322,-0.022349,0.011706,0.002128,28.856250,87.496875,33.533203
37.493495,-0.427695,-1.260952,0.026087,3.135561,0.268151,0.043096,9.835380,-0.021284,0.014899,-0.002128,28.856250,87.496875,33.533203
37.595751,-0.404215,-1.255462,0.037958,3.127247,0.359130,0.014365,9.806650,-0.024477,0.012771,0.000000,28.856250,87.496875,33.533203
37.697202,-0.318592,-1.268230,0.022670,3.125856,0.263362,0.067038,9.701305,-0.021284,0.010642,-0.002128,27.787500,87.496875,32.841797
