Time, Altitude, Yaw, Pitch, Roll, Ax, Ay, Az, Pitch_rate, Roll_rate,Yaw_rate, Magx, Magy, Magz0.696486,-0.145276,-0.155925,0.038540,0.084291,0.450110,0.158017,9.854534,-0.019156,0.012771,0.002128,41.146875,84.807422,37.163086
0.796513,-0.331666,-0.312332,0.064017,0.207154,0.373495,0.090980,9.677363,-0.021284,0.010642,0.001064,41.503125,86.600391,37.163086
0.896645,-0.351385,-0.438613,0.069460,0.360442,0.354342,0.162806,9.744401,-0.022349,0.009578,-0.001064,42.037500,86.421094,36.644531
0.997514,-0.657953,-0.526763,0.060721,0.537427,0.373495,0.124498,9.840169,-0.022349,0.012771,-0.001064,42.037500,86.421094,36.644531
1.099496,-0.574553,-0.575580,0.047502,0.730211,0.359130,0.167594,9.787496,-0.020220,0.011706,0.000000,41.681250,86.062500,36.990234
1.201159,-0.279624,-0.594102,0.043556,0.930742,0.330400,0.071826,9.840169,-0.020220,0.012771,-0.002128,42.928125,85.883203,38.545898
1.302183,-0.595456,-0.598622,0.057023,1.132558,0.411803,0.158017,9.782708,-0.020220,0.010642,-0.002128,42.393750,86.421094,36.644531
1.404040,-0.538260,-0.604945,0.085256,1.332931,0.383072,0.186748,9.864111,-0.021284,0.011706,-0.001064,41.859375,85.524609,37.163086
1.505213,-0.759107,-0.622754,0.128488,1.531283,0.378284,0.095768,9.744401,-0.019156,0.012771,0.002128,41.859375,85.524609,37.163086
1.606518,-0.416235,-0.660235,0.177534,1.729656,0.397437,0.090980,9.825804,-0.018092,0.009578,0.001064,41.859375,85.524609,37.163086
1.708283,-0.716044,-0.718561,0.223069,1.929723,0.435745,0.181959,9.806650,-0.023413,0.011706,0.001064,43.640625,84.807422,38.200195
1.810494,-0.470217,-0.795449,0.254297,2.132053,0.397437,0.105345,9.734824,-0.019156,0.010642,-0.001064,41.681250,87.496875,36.298828
1.911160,-0.632326,-0.885401,0.265702,2.333817,0.392649,0.153229,9.777920,-0.020220,0.007450,0.001064,40.968750,87.138281,37.335938
2.011941,-0.640429,-0.978784,0.252393,2.532350,0.325611,0.110133,9.773131,-0.022349,0.010642,0.000000,43.284375,85.883203,37.163086
2.113309,-0.494168,-1.062019,0.209950,2.725243,0.292093,0.138864,9.730036,-0.023413,0.010642,0.004257,42.750000,86.421094,37.681641
2.214410,-0.478677,-1.129236,0.141149,2.909389,0.407014,0.181959,9.701305,-0.020220,0.013835,-0.002128,42.750000,86.421094,37.681641
2.315969,-0.516508,-1.152016,0.041639,3.082693,0.220267,0.110133,9.787496,-0.023413,0.010642,-0.003193,41.325000,84.986719,36.298828
2.417828,-0.622699,-1.130024,0.021764,3.109858,0.316035,0.143652,9.892841,-0.021284,0.011706,0.001064,41.325000,86.062500,38.373047
2.518995,-0.446491,-1.135889,0.034074,3.118096,0.373495,0.119710,9.768343,-0.023413,0.011706,0.000000,42.037500,86.779687,36.990234
2.620658,-0.530030,-1.112894,0.041353,3.119942,0.373495,0.134075,9.911995,-0.022349,0.011706,-0.001064,42.750000,86.062500,37.681641
2.722803,-0.842060,-1.119071,0.029551,3.107742,0.363919,0.110133,9.768343,-0.023413,0.010642,-0.002128,42.037500,85.703906,38.027344
2.824346,-0.591752,-1.116138,0.025111,3.110846,0.325611,0.129287,9.739612,-0.022349,0.010642,0.001064,42.215625,83.731641,37.163086
2.925581,-0.414329,-1.115022,0.020167,3.120633,0.287304,0.124498,9.902418,-0.023413,0.013835,0.001064,42.215625,83.731641,37.163086
3.027283,-0.487725,-1.129829,0.036630,3.121039,0.359130,0.119710,9.787496,-0.022349,0.011706,0.002128,42.037500,86.062500,37.681641
3.129204,-0.353639,-1.114838,0.019272,3.100453,0.344765,0.138864,9.763554,-0.020220,0.010642,0.002128,42.571875,85.524609,37.854492
3.230758,-0.394384,-1.142789,0.021884,3.113939,0.292093,0.181959,9.686940,-0.023413,0.012771,0.000000,41.146875,85.524609,37.163086
3.332527,-0.531089,-1.129596,0.027382,3.118685,0.368707,0.138864,9.725247,-0.022349,0.010642,0.001064,42.571875,85.883203,37.163086
3.434321,-0.750515,-1.124573,0.037906,3.114148,0.416591,0.129287,9.811438,-0.022349,0.009578,0.002128,42.571875,86.241797,36.471680
3.535746,-0.502905,-1.134327,0.025313,3.115428,0.344765,0.158017,9.840169,-0.021284,0.012771,0.005321,41.503125,86.241797,36.817383
3.637111,-0.816074,-1.128378,0.014107,3.115580,0.272939,0.234632,9.710882,-0.023413,0.008514,0.000000,41.503125,86.241797,36.817383
3.738782,-0.744381,-1.135749,0.027760,3.128030,0.311246,0.114922,9.753978,-0.019156,0.013835,0.002128,41.681250,86.421094,36.990234
3.839940,-0.414497,-1.129472,0.025522,3.111465,0.383072,0.210690,9.691728,-0.021284,0.008514,-0.002128,42.928125,86.958984,37.163086
3.941278,-0.711614,-1.126031,0.043065,3.115098,0.411803,0.114922,9.830592,-0.022349,0.010642,0.001064,42.928125,86.958984,37.163086
4.043152,-0.381030,-1.113774,0.036469,3.105284,0.450110,0.143652,9.811438,-0.022349,0.013835,-0.001064,42.571875,84.807422,37.508789
4.144528,-0.467446,-1.134074,0.024738,3.105521,0.407014,0.205901,9.734824,-0.023413,0.010642,0.001064,41.325000,85.703906,35.953125
4.246787,-0.372814,-1.120132,0.022896,3.115521,0.301669,0.143652,9.816227,-0.020220,0.010642,0.002128,41.859375,84.090234,37.508789
4.348098,-0.839867,-1.121912,0.036488,3.121976,0.368707,0.105345,9.777920,-0.022349,0.010642,0.001064,41.859375,84.090234,37.508789
4.449769,-0.573736,-1.129649,0.038893,3.104117,0.392649,0.162806,9.734824,-0.019156,0.012771,-0.004257,42.393750,87.138281,36.990234
4.551045,-0.810883,-1.124068,0.014409,3.106431,0.316035,0.167594,9.682152,-0.022349,0.011706,0.001064,42.393750,87.138281,36.990234
4.652921,-0.591950,-1.114947,0.022258,3.116576,0.287304,0.134075,9.763554,-0.020220,0.013835,0.000000,42.393750,84.986719,37.681641
4.754566,-0.500657,-1.136653,0.029580,3.106009,0.392649,0.158017,9.878476,-0.020220,0.009578,0.000000,40.256250,85.345312,38.027344
4.855892,-0.824653,-1.101168,0.015405,3.112303,0.306458,0.162806,9.691728,-0.018092,0.010642,-0.001064,43.640625,85.524609,36.817383
4.957527,-0.524533,-1.118409,0.025958,3.116995,0.344765,0.129287,9.696517,-0.020220,0.010642,0.002128,42.928125,86.958984,37.163086
5.059270,-0.666965,-1.125345,0.023383,3.111405,0.368707,0.186748,9.806650,-0.021284,0.011706,-0.002128,42.928125,86.958984,37.163086
5.160951,-0.305630,-1.116690,0.034013,3.098423,0.392649,0.119710,9.710882,-0.023413,0.009578,0.005321,42.928125,86.958984,37.163086
5.262826,-0.786188,-1.115613,0.014528,3.098977,0.306458,0.239420,9.744401,-0.024477,0.014899,0.000000,42.928125,85.883203,36.471680
5.364382,-0.708266,-1.141270,0.024696,3.105061,0.354342,0.186748,9.710882,-0.021284,0.010642,-0.002128,40.968750,87.496875,36.298828
5.465727,-0.343264,-1.125841,0.034617,3.121950,0.373495,0.095768,9.840169,-0.023413,0.006385,0.000000,40.790625,84.807422,36.471680
5.567287,-0.385393,-1.135448,0.016643,3.123767,0.287304,0.138864,9.792285,-0.024477,0.012771,0.004257,41.681250,86.421094,35.953125
5.668771,-0.324701,-1.121101,0.032107,3.120126,0.359130,0.014365,9.821015,-0.019156,0.010642,-0.003193,42.750000,86.421094,35.953125
5.770370,-1.041625,-1.118113,0.034233,3.112915,0.411803,0.081403,9.821015,-0.019156,0.009578,0.000000,42.750000,86.421094,35.953125
5.872306,-0.561970,-1.113454,0.022263,3.121311,0.296881,0.119710,9.768343,-0.022349,0.011706,-0.002128,43.462500,85.345312,36.990234
5.973698,-0.612592,-1.105897,0.031523,3.113363,0.335188,0.100556,9.710882,-0.021284,0.011706,0.000000,43.462500,85.345312,36.990234
6.075304,-0.790550,-1.114370,0.020214,3.118114,0.296881,0.129287,9.777920,-0.025541,0.007450,-0.001064,43.106250,85.345312,38.373047
6.176543,-0.563496,-1.113239,0.020620,3.111808,0.296881,0.153229,9.682152,-0.022349,0.012771,-0.003193,43.106250,86.421094,36.990234
6.278284,-0.776064,-1.128966,0.037909,3.106674,0.459687,0.143652,9.773131,-0.025541,0.010642,0.001064,42.037500,86.062500,35.261719
